[{"id":"00040ED8B61CA94B","lat":22.309742,"lng":114.171412,"name_en":"PUBLIC SQUARE STREET YAU MA TEI (S36)","name_zh":"油麻地眾坊街 (S36)","bus_group_id":1},{"id":"5EEFE2E2583B576B","lat":22.30968,"lng":114.171093,"name_en":"KOWLOON CENTRAL POST OFFICE (N37)","name_zh":"九龍中央郵政局 (N37)","bus_group_id":1},{"id":"CBF110E4B3E23071","lat":22.309786,"lng":114.171398,"name_en":"PUBLIC SQUARE STREET YAU MA TEI (S37)","name_zh":"油麻地眾坊街 (S37)","bus_group_id":1},{"id":"000CFEE2F92DC17B","lat":22.495982,"lng":114.141578,"name_en":"FAN LENG LAU","name_zh":"粉嶺樓","bus_group_id":2},{"id":"20018974","lat":22.4959,"lng":114.14151,"name_en":"Sha Tau Kok Road near Fan Leng Lau Tsuen ","name_zh":"沙頭角公路近粉嶺樓村","bus_group_id":2},{"id":"000DF0B79CF28326","lat":22.3465,"lng":114.187167,"name_en":"TSUI CHUK GARDEN","name_zh":"翠竹花園","bus_group_id":3},{"id":"C25EB13977ABF04E","lat":22.34653,"lng":114.187449,"name_en":"TSUI CHUK GARDEN","name_zh":"翠竹花園","bus_group_id":3},{"id":"001001","lat":22.279916732091,"lng":114.15458450053,"name_en":"The Centrium, Arbuthnot Road","name_zh":"中央廣場, 亞畢諾道","bus_group_id":4},{"id":"001002","lat":22.286057592091,"lng":114.13262448053,"name_en":"The Westwood, Belcher's Street","name_zh":"西寶城, 卑路乍街","bus_group_id":5},{"id":"20000085","lat":22.2863,"lng":114.13273,"name_en":"Belcher's Street, near Sun Shing Building","name_zh":"卑路乍街, 近新城大樓","bus_group_id":5},{"id":"001003","lat":22.283632272091,"lng":114.13063421053,"name_en":"Sands Street, Belcher's Street","name_zh":"山市街, 卑路乍街","bus_group_id":6},{"id":"3015AF669161ADBF","lat":22.283553,"lng":114.130616,"name_en":"SANDS STREET","name_zh":"山市街","bus_group_id":6},{"id":"001004","lat":22.282646942091,"lng":114.12866820053,"name_en":"North Street, Belcher's Street","name_zh":"北街, 卑路乍街","bus_group_id":7},{"id":"20000289","lat":22.28262,"lng":114.12864,"name_en":"No.68 Belcher's Street ","name_zh":"卑路乍街68號","bus_group_id":7},{"id":"85060261088757CD","lat":22.282665,"lng":114.128678,"name_en":"NORTH STREET","name_zh":"北街","bus_group_id":7},{"id":"001005","lat":22.282463392091,"lng":114.12760792053,"name_en":"Luen Bong Apartment, Belcher's Street","name_zh":"聯邦新樓, 卑路乍街","bus_group_id":8},{"id":"5CE3ECA0F9501DAB","lat":22.28239,"lng":114.127414,"name_en":"LUEN BONG APARTMENT","name_zh":"聯邦新樓","bus_group_id":8},{"id":"001006","lat":22.284271882091,"lng":114.13975405053,"name_en":"King's College, Bonham Road","name_zh":"英皇書院, 般咸道","bus_group_id":9},{"id":"65523F89F26B2088","lat":22.28427,"lng":114.139795,"name_en":"KING'S COLLEGE","name_zh":"英皇書院","bus_group_id":9},{"id":"001007","lat":22.284803832091,"lng":114.14117667053,"name_en":"Ning Yeung Terrace, Bonham Road","name_zh":"寧養台, 般咸道","bus_group_id":10},{"id":"20000015","lat":22.28486,"lng":114.1412,"name_en":"Bonham Road, house no. 53","name_zh":"般咸道53號","bus_group_id":10},{"id":"001008","lat":22.284292742091,"lng":114.14346201053,"name_en":"Eastern Street, Bonham Road","name_zh":"東邊街, 般咸道","bus_group_id":11},{"id":"001092","lat":22.283869362091,"lng":114.14350996053,"name_en":"St. Stephen's Girls' College, Park Road","name_zh":"聖士提反女子中學, 柏道","bus_group_id":11},{"id":"20014527","lat":22.28438,"lng":114.14345,"name_en":"BONHAM ROAD, near Park Height","name_zh":"般咸道, 近栢苑","bus_group_id":11},{"id":"8BD7CEC6396E46F0","lat":22.284395,"lng":114.143458,"name_en":"EASTERN STREET","name_zh":"東邊街","bus_group_id":11},{"id":"001009","lat":22.284881822091,"lng":114.14575316053,"name_en":"High Street, Bonham Road","name_zh":"高街, 般咸道","bus_group_id":12},{"id":"54F26831BD4A5EBD","lat":22.284737,"lng":114.146005,"name_en":"HIGH STREET","name_zh":"高街","bus_group_id":12},{"id":"001010","lat":22.283648272091,"lng":114.14741541053,"name_en":"Hospital Road, Bonham Road","name_zh":"醫院道, 般咸道","bus_group_id":13},{"id":"20014537","lat":22.28363,"lng":114.14747,"name_en":"Bonham Road, Hospital Road","name_zh":"般咸道, 醫院道","bus_group_id":13},{"id":"20000173","lat":22.28368,"lng":114.1474,"name_en":"Bonham Road, Hospital Road","name_zh":"般咸道, 醫院道","bus_group_id":13},{"id":"65DA1259C72FD22B","lat":22.283732,"lng":114.147265,"name_en":"HOSPITAL ROAD","name_zh":"醫院道","bus_group_id":13},{"id":"001011","lat":22.284879112091,"lng":114.14515677053,"name_en":"Euston Court, Bonham Road","name_zh":"豫苑, 般咸道","bus_group_id":14},{"id":"20004542","lat":22.28483,"lng":114.14502,"name_en":"Euston Court, Bonham Road","name_zh":"般咸道, 豫苑","bus_group_id":14},{"id":"001012","lat":22.283960482091,"lng":114.13870250053,"name_en":"HKU East Gate, Bonham Road","name_zh":"香港大學東閘, 般咸道","bus_group_id":15},{"id":"20014880","lat":22.28395,"lng":114.13872,"name_en":"BONHAM ROAD, near ST PAUL'S COLLEGE","name_zh":"般咸道, 近聖保羅書院","bus_group_id":15},{"id":"20014869","lat":22.28414,"lng":114.13858,"name_en":"Bonham Road, East Gate of The University of Hong Kong","name_zh":"般咸道, 香港大學東閘","bus_group_id":15},{"id":"001013","lat":22.284209702091,"lng":114.14433785053,"name_en":"Eastern Street, Bonham Road","name_zh":"東邊街, 般咸道","bus_group_id":16},{"id":"282C72D931F093BD","lat":22.284121,"lng":114.144248,"name_en":"EASTERN STREET","name_zh":"東邊街","bus_group_id":16},{"id":"001014","lat":22.284394942091,"lng":114.14230475053,"name_en":"Centre Street, Bonham Road","name_zh":"正街, 般咸道","bus_group_id":17},{"id":"20002406","lat":22.28444,"lng":114.14214,"name_en":"Centre Street, Bonham Road","name_zh":"般咸道, 正街","bus_group_id":17},{"id":"001015","lat":22.283116402091,"lng":114.14886791053,"name_en":"Ladder Street, Caine Road","name_zh":"樓梯街, 堅道","bus_group_id":18},{"id":"001154","lat":22.282826282091,"lng":114.14880373053,"name_en":"Jadestone Court, Seymour Road","name_zh":"寶玉閣, 西摩道","bus_group_id":18},{"id":"001016","lat":22.282471402091,"lng":114.15073989053,"name_en":"Aberdeen Street, Caine Road","name_zh":"鴨巴甸街, 堅道","bus_group_id":19},{"id":"20000304","lat":22.28233,"lng":114.15092,"name_en":"Caine Road, near Castle Road","name_zh":"堅道，近衛城道","bus_group_id":19},{"id":"2ECC1DBA0C28E93C","lat":22.282554,"lng":114.150736,"name_en":"ABERDEEN STREET","name_zh":"鴨巴甸街","bus_group_id":19},{"id":"20004106","lat":22.28263,"lng":114.15047,"name_en":"CAINE ROAD, near On Fung Building","name_zh":"堅道, 近安峰大廈","bus_group_id":19},{"id":"001017","lat":22.280152942091,"lng":114.15391248053,"name_en":"Caritas Centre, Caine Road","name_zh":"明愛中心, 堅道","bus_group_id":20},{"id":"20000305","lat":22.28013,"lng":114.15399,"name_en":"CAINE ROAD, near Avon Court","name_zh":"堅道, 近雅苑","bus_group_id":20},{"id":"CAEFA7D6314535BC","lat":22.280184,"lng":114.153922,"name_en":"CARITAS CENTRE","name_zh":"明愛中心","bus_group_id":20},{"id":"001018","lat":22.279434502091,"lng":114.15420482053,"name_en":"Caritas Centre, Caine Road","name_zh":"明愛中心, 堅道","bus_group_id":21},{"id":"20004545","lat":22.27936,"lng":114.15417,"name_en":"Caritas Centre, Caine Road","name_zh":"堅道, 明愛中心","bus_group_id":21},{"id":"001019","lat":22.281336102091,"lng":114.15190655053,"name_en":"Dr Sun Yat-sen Museum, Caine Road","name_zh":"孫中山紀念館, 堅道","bus_group_id":22},{"id":"57A529DB420CFC77","lat":22.281244,"lng":114.151881,"name_en":"DR SUN YAT-SEN MUSEUM","name_zh":"孫中山紀念館","bus_group_id":22},{"id":"20000019","lat":22.28167,"lng":114.15167,"name_en":"Caine Road, Peel Street","name_zh":"堅道, 卑利街","bus_group_id":22},{"id":"001020","lat":22.282821442091,"lng":114.14949489053,"name_en":"Ladder Street, Caine Road","name_zh":"樓梯街, 堅道","bus_group_id":23},{"id":"001155","lat":22.282494302091,"lng":114.14939124053,"name_en":"Castle Road, Seymour Road","name_zh":"衛城道, 西摩道","bus_group_id":23},{"id":"001021","lat":22.283159702091,"lng":114.14786353053,"name_en":"Seymour Road, Caine Road","name_zh":"西摩道, 堅道","bus_group_id":24},{"id":"376C02CE16F597C9","lat":22.283135,"lng":114.147916,"name_en":"SEYMOUR ROAD","name_zh":"西摩道","bus_group_id":24},{"id":"001022","lat":22.283220932091,"lng":114.12755609053,"name_en":"Davis Street, Catchick Street","name_zh":"爹核士街, 吉席街","bus_group_id":25},{"id":"20000081","lat":22.28321,"lng":114.12735,"name_en":"No.71 Catchick Street","name_zh":"吉席街71號","bus_group_id":25},{"id":"001024","lat":22.281877032091,"lng":114.15841707053,"name_en":"Chater House, Chater Road","name_zh":"遮打大廈, 遮打道","bus_group_id":26},{"id":"001050","lat":22.281459032091,"lng":114.15830013053,"name_en":"Alexandra House, Des Voeux Road Central","name_zh":"歷山大廈, 德輔道中","bus_group_id":26},{"id":"001025","lat":22.281482342091,"lng":114.16005494053,"name_en":"Statue Square, Chater Road","name_zh":"皇后像廣場, 遮打道","bus_group_id":27},{"id":"3D880BF3426C8C0B","lat":22.281504,"lng":114.159985,"name_en":"CHATER ROAD","name_zh":"遮打道","bus_group_id":27},{"id":"AC23815E9EE706A2","lat":22.281515,"lng":114.16006,"name_en":"STATUE SQUARE","name_zh":"皇后像廣場","bus_group_id":27},{"id":"001027","lat":22.288274152091,"lng":114.15042248053,"name_en":"Central (Macau Ferry)","name_zh":"中環 (港澳碼頭)","bus_group_id":28},{"id":"9064D9087DDD5811","lat":22.288088,"lng":114.150071,"name_en":"CHUNG KING ROAD","name_zh":"中景道","bus_group_id":28},{"id":"59013D693D2493FE","lat":22.288344,"lng":114.150464,"name_en":"CENTRAL (MACAU FERRY)","name_zh":"中環(港澳碼頭)","bus_group_id":28},{"id":"001028","lat":22.287714882091,"lng":114.15133682053,"name_en":"Macau Ferry, Connaught Road Central","name_zh":"港澳碼頭, 干諾道中","bus_group_id":29},{"id":"C8811A27E4B64581","lat":22.287656,"lng":114.151781,"name_en":"MACAU FERRY","name_zh":"港澳碼頭","bus_group_id":29},{"id":"001029","lat":22.286703242091,"lng":114.15535823053,"name_en":"Harbour Building, Pier Road","name_zh":"海港政府大樓, 統一碼頭道","bus_group_id":30},{"id":"C67C7D69D2EDA292","lat":22.286746,"lng":114.155061,"name_en":"HARBOUR BUILDING","name_zh":"海港政府大樓","bus_group_id":30},{"id":"4FCF8ED4A60F9769","lat":22.287024,"lng":114.155242,"name_en":"HARBOUR BUILDING","name_zh":"海港政府大樓","bus_group_id":30},{"id":"001030","lat":22.282618792091,"lng":114.15929917053,"name_en":"Jardine House, Connaught Road Central","name_zh":"怡和大廈, 干諾道中","bus_group_id":31},{"id":"77D08D8DF5A80932","lat":22.282673,"lng":114.159342,"name_en":"JARDINE HOUSE","name_zh":"怡和大廈","bus_group_id":31},{"id":"8379C4B1265C27F7","lat":22.28271,"lng":114.159271,"name_en":"JARDINE HOUSE","name_zh":"怡和大廈","bus_group_id":31},{"id":"001031","lat":22.281868122091,"lng":114.16153245053,"name_en":"City Hall, Connaught Road Central","name_zh":"大會堂, 干諾道中","bus_group_id":32},{"id":"E499DA804188827F","lat":22.281925,"lng":114.161476,"name_en":"CITY HALL","name_zh":"大會堂","bus_group_id":32},{"id":"001032","lat":22.283695952091,"lng":114.15803274053,"name_en":"Central (Exchange Square)","name_zh":"中環 (交易廣場)","bus_group_id":33},{"id":"20006979","lat":22.28371,"lng":114.15846,"name_en":"Central (Exchange Square)","name_zh":"中環(交易廣場)","bus_group_id":33},{"id":"001033","lat":22.281992192091,"lng":114.16003822053,"name_en":"Statue Square, Connaught Road Central","name_zh":"皇后像廣場, 干諾道中","bus_group_id":34},{"id":"11CE1FD8440A89D3","lat":22.281936,"lng":114.16012,"name_en":"STATUE SQUARE","name_zh":"皇后像廣場","bus_group_id":34},{"id":"001034","lat":22.283587582091,"lng":114.15730419053,"name_en":"Pottinger Street, Connaught Road Central","name_zh":"砵典乍街, 干諾道中","bus_group_id":35},{"id":"4AA350AD8FFF4786","lat":22.283262,"lng":114.157565,"name_en":"POTTINGER STREET","name_zh":"砵典乍街","bus_group_id":35},{"id":"001035","lat":22.284812302091,"lng":114.15631844053,"name_en":"Hang Seng Bank Headquarters, Connaught Road Central","name_zh":"恒生銀行總行大廈, 干諾道中","bus_group_id":36},{"id":"001036","lat":22.285203642091,"lng":114.15604393053,"name_en":"Jubilee Street, Connaught Road Central","name_zh":"租庇利街, 干諾道中","bus_group_id":37},{"id":"B0AF4A7858AFE703","lat":22.285243,"lng":114.155976,"name_en":"JUBILEE STREET","name_zh":"租庇利街","bus_group_id":37},{"id":"001037","lat":22.286484072091,"lng":114.15404315053,"name_en":"Rumsey Street, Connaught Road Central","name_zh":"林士街, 干諾道中","bus_group_id":38},{"id":"A8CD8C1198907526","lat":22.286471,"lng":114.154022,"name_en":"RUMSEY STREET","name_zh":"林士街","bus_group_id":38},{"id":"001038","lat":22.286883032091,"lng":114.15318275053,"name_en":"Wing On Centre, Connaught Road Central","name_zh":"永安中心, 干諾道中","bus_group_id":39},{"id":"16F1654702825C04","lat":22.286858,"lng":114.153154,"name_en":"RUMSEY STREET","name_zh":"林士街","bus_group_id":39},{"id":"001039","lat":22.287162322091,"lng":114.15198544053,"name_en":"Hillier Street, Connaught Road Central","name_zh":"禧利街, 干諾道中","bus_group_id":40},{"id":"001040","lat":22.287710712091,"lng":114.14980124053,"name_en":"Western Market, Connaught Road West","name_zh":"西港城, 干諾道西","bus_group_id":41},{"id":"0AB51B6742BD37E4","lat":22.287687,"lng":114.149886,"name_en":"WESTERN MARKET","name_zh":"西港城","bus_group_id":41},{"id":"A522C32E5DA5C278","lat":22.288026,"lng":114.149959,"name_en":"MACAU FERRY PIER BUS TERMINUS","name_zh":"港澳客運碼頭巴士總站","bus_group_id":41},{"id":"001041","lat":22.277664742091,"lng":114.16044539053,"name_en":"Hong Kong Park, Cotton Tree Drive","name_zh":"香港公園, 紅棉路","bus_group_id":42},{"id":"20000026","lat":22.27762,"lng":114.16041,"name_en":"Cotton Tree Drive, outside Hong Kong Squash Centre","name_zh":"紅棉路, 香港壁球中心外","bus_group_id":42},{"id":"001042","lat":22.281516532091,"lng":114.15613926053,"name_en":"Lan Kwai Fong, D'Aguilar Street","name_zh":"蘭桂坊, 德己立街","bus_group_id":43},{"id":"001044","lat":22.286050072091,"lng":114.15372775053,"name_en":"Rumsey Street, Des Voeux Road Central","name_zh":"林士街, 德輔道中","bus_group_id":44},{"id":"ED3477DD255C1DE7","lat":22.286025,"lng":114.153476,"name_en":"RUMSEY STREET","name_zh":"林士街","bus_group_id":44},{"id":"C78818C8285315B3","lat":22.286117,"lng":114.153702,"name_en":"RUMSEY STREET","name_zh":"林士街","bus_group_id":44},{"id":"1E964671BE4EC7B5","lat":22.286053,"lng":114.153811,"name_en":"RUMSEY STREET","name_zh":"林士街","bus_group_id":44},{"id":"001046","lat":22.285207892091,"lng":114.15517314053,"name_en":"Central Market, Des Voeux Road Central","name_zh":"中環街市, 德輔道中","bus_group_id":45},{"id":"69263C9DB4729B7F","lat":22.285191,"lng":114.155277,"name_en":"CENTRAL MARKET","name_zh":"中環街市","bus_group_id":45},{"id":"001047","lat":22.283301982091,"lng":114.15683404053,"name_en":"Douglas Street, Des Voeux Road Central","name_zh":"德忌利士街, 德輔道中","bus_group_id":46},{"id":"83B717529F9794BC","lat":22.283008,"lng":114.156894,"name_en":"LI YUEN STREET EAST","name_zh":"利源東街","bus_group_id":46},{"id":"D7D5360A9A0C5D6A","lat":22.283342,"lng":114.156845,"name_en":"DOUGLAS STREET","name_zh":"德忌利士街","bus_group_id":46},{"id":"205CE4DA030061F9","lat":22.283551,"lng":114.156686,"name_en":"DOUGLAS STREET","name_zh":"德忌利士街","bus_group_id":46},{"id":"001049","lat":22.282866402091,"lng":114.15717776053,"name_en":"Douglas Street, Des Voeux Road Central","name_zh":"德忌利士街, 德輔道中","bus_group_id":47},{"id":"83B717529F9794BC","lat":22.283008,"lng":114.156894,"name_en":"LI YUEN STREET EAST","name_zh":"利源東街","bus_group_id":47},{"id":"001050","lat":22.281459032091,"lng":114.15830013053,"name_en":"Alexandra House, Des Voeux Road Central","name_zh":"歷山大廈, 德輔道中","bus_group_id":48},{"id":"3B487B85E3F07416","lat":22.28152,"lng":114.158043,"name_en":"THE LANDMARK","name_zh":"置地廣場","bus_group_id":48},{"id":"001051","lat":22.280748762091,"lng":114.15964401053,"name_en":"Statue Square, Des Voeux Road Central","name_zh":"皇后像廣場, 德輔道中","bus_group_id":49},{"id":"D5FEF340EE98A7E8","lat":22.280703,"lng":114.15991,"name_en":"STATUE SQUARE","name_zh":"皇后像廣場","bus_group_id":49},{"id":"C0B0B597A9C896F7","lat":22.280784,"lng":114.159628,"name_en":"STATUE SQUARE","name_zh":"皇后像廣場","bus_group_id":49},{"id":"A9069A17B1474D76","lat":22.280854,"lng":114.159427,"name_en":"STATUE SQUARE","name_zh":"皇后像廣場","bus_group_id":49},{"id":"001052","lat":22.280108962091,"lng":114.16064635053,"name_en":"Chater Garden, Des Voeux Road Central","name_zh":"遮打花園, 德輔道中","bus_group_id":50},{"id":"83D17F49F5F5B5F1","lat":22.280085,"lng":114.160819,"name_en":"CHATER GARDEN","name_zh":"遮打花園","bus_group_id":50},{"id":"001053","lat":22.280739462091,"lng":114.15905007053,"name_en":"HSBC Main Building, Des Voeux Road Central","name_zh":"滙豐總行大廈, 德輔道中","bus_group_id":51},{"id":"B471F4B9E9CB6DB7","lat":22.280636,"lng":114.159234,"name_en":"HSBC BUILDING","name_zh":"滙豐總行","bus_group_id":51},{"id":"001054","lat":22.281316152091,"lng":114.15825054053,"name_en":"The Landmark, Des Voeux Road Central","name_zh":"置地廣場, 德輔道中","bus_group_id":52},{"id":"3B487B85E3F07416","lat":22.28152,"lng":114.158043,"name_en":"THE LANDMARK","name_zh":"置地廣場","bus_group_id":52},{"id":"A0C1BB5A1A985802","lat":22.281381,"lng":114.158239,"name_en":"THE LANDMARK","name_zh":"置地廣場","bus_group_id":52},{"id":"001055","lat":22.283055002091,"lng":114.15686516053,"name_en":"Li Yuen Street East, Des Voeux Road Central","name_zh":"利源東街, 德輔道中","bus_group_id":53},{"id":"83B717529F9794BC","lat":22.283008,"lng":114.156894,"name_en":"LI YUEN STREET EAST","name_zh":"利源東街","bus_group_id":53},{"id":"5298A15B8CCAEF42","lat":22.283274,"lng":114.156906,"name_en":"DOUGLAS STREET","name_zh":"德忌利士街","bus_group_id":53},{"id":"46CB01C7F12428A3","lat":22.283296,"lng":114.156887,"name_en":"DOUGLAS STREET","name_zh":"德忌利士街","bus_group_id":53},{"id":"001056","lat":22.284855172091,"lng":114.15539392053,"name_en":"Central Market, Des Voeux Road Central","name_zh":"中環街市, 德輔道中","bus_group_id":54},{"id":"69263C9DB4729B7F","lat":22.285191,"lng":114.155277,"name_en":"CENTRAL MARKET","name_zh":"中環街市","bus_group_id":54},{"id":"FFB52BC25F0AB482","lat":22.285139,"lng":114.155364,"name_en":"CENTRAL MARKET","name_zh":"中環街市","bus_group_id":54},{"id":"001057","lat":22.285679522091,"lng":114.15410704053,"name_en":"Wing Kut Street, Des Voeux Road Central","name_zh":"永吉街, 德輔道中","bus_group_id":55},{"id":"B4962A215D3DFA65","lat":22.285455,"lng":114.154437,"name_en":"WING KUT STREET","name_zh":"永吉街","bus_group_id":55},{"id":"001058","lat":22.286445542091,"lng":114.15219033053,"name_en":"Man Wa Lane, Des Voeux Road Central","name_zh":"文華里, 德輔道中","bus_group_id":56},{"id":"SHW","lat":22.286599015881464,"lng":114.15201346385626,"name_en":"Sheung Wan","name_zh":"上環","bus_group_id":56},{"id":"001059","lat":22.287202282091,"lng":114.13257171053,"name_en":"Kennedy Town Swimming Pool Sitting-out Area, Des Voeux Road West","name_zh":"堅尼地城游泳池休憩處, 德輔道西","bus_group_id":57},{"id":"85CB8068F5EE5C72","lat":22.287235,"lng":114.132563,"name_en":"QUEEN'S ROAD WEST","name_zh":"皇后大道西","bus_group_id":57},{"id":"001060","lat":22.287192342091,"lng":114.13433789053,"name_en":"Hill Road, Des Voeux Road West","name_zh":"山道, 德輔道西","bus_group_id":58},{"id":"20003469","lat":22.28716,"lng":114.13449,"name_en":"Des Voeux Road West opposite Kwan Yick Building Phase 1","name_zh":"德輔道西, 均益大廈一期對面","bus_group_id":58},{"id":"001061","lat":22.287117792091,"lng":114.13734316053,"name_en":"Ka On Street, Des Voeux Road West","name_zh":"嘉安街, 德輔道西","bus_group_id":59},{"id":"1C6C94ABE1C78BBB","lat":22.287253,"lng":114.137668,"name_en":"KWAN YICK BUILDING PHASE II","name_zh":"均益大廈第二期","bus_group_id":59},{"id":"001062","lat":22.287960232091,"lng":114.14034970053,"name_en":"Western Police Station, Des Voeux Road West","name_zh":"西區警署, 德輔道西","bus_group_id":60},{"id":"EC715C570AB11722","lat":22.287874,"lng":114.139919,"name_en":"WESTERN POLICE STATION","name_zh":"西區警署","bus_group_id":60},{"id":"96A2D8B9A0BB1A71","lat":22.287976,"lng":114.140354,"name_en":"WESTERN POLICE STATION","name_zh":"西區警署","bus_group_id":60},{"id":"001063","lat":22.287991912091,"lng":114.14192498053,"name_en":"Centre Street, Des Voeux Road West","name_zh":"正街, 德輔道西","bus_group_id":61},{"id":"16DA5BA89307EDC2","lat":22.288035,"lng":114.141558,"name_en":"CENTRE STREET","name_zh":"正街","bus_group_id":61},{"id":"001064","lat":22.287915452091,"lng":114.14422510053,"name_en":"Eastern Street, Des Voeux Road West","name_zh":"東邊街, 德輔道西","bus_group_id":62},{"id":"E89C6DCF25D25B3B","lat":22.287967,"lng":114.144087,"name_en":"EASTERN STREET","name_zh":"東邊街","bus_group_id":62},{"id":"001065","lat":22.287779782091,"lng":114.14637128053,"name_en":"Sutherland Street, Des Voeux Road West","name_zh":"修打蘭街, 德輔道西","bus_group_id":63},{"id":"20003090","lat":22.28781,"lng":114.14622,"name_en":"Des Voeux Road West No.51","name_zh":"德輔道西51號外","bus_group_id":63},{"id":"001066","lat":22.287617562091,"lng":114.14686036053,"name_en":"Queen Street, Des Voeux Road West","name_zh":"皇后街, 德輔道西","bus_group_id":64},{"id":"7616C33B0351F02D","lat":22.287806,"lng":114.146434,"name_en":"SUTHERLAND STREET","name_zh":"修打蘭街","bus_group_id":64},{"id":"001067","lat":22.287746752091,"lng":114.14541645053,"name_en":"Ko Shing Street, Des Voeux Road West","name_zh":"高陞街, 德輔道西","bus_group_id":65},{"id":"002738","lat":22.287877042091,"lng":114.14528892053,"name_en":"Wilmer Street, Des Voeux Road West","name_zh":"威利麻街, 德輔道西","bus_group_id":65},{"id":"C13E78D5B5FB0F1D","lat":22.28791,"lng":114.145326,"name_en":"WILMER STREET","name_zh":"威利蔴街","bus_group_id":65},{"id":"1749ED5AAA821C85","lat":22.287689,"lng":114.145457,"name_en":"KO SHING STREET","name_zh":"高陞街","bus_group_id":65},{"id":"001068","lat":22.287878642091,"lng":114.14161842053,"name_en":"Centre Street, Des Voeux Road West","name_zh":"正街, 德輔道西","bus_group_id":66},{"id":"16DA5BA89307EDC2","lat":22.288035,"lng":114.141558,"name_en":"CENTRE STREET","name_zh":"正街","bus_group_id":66},{"id":"001069","lat":22.287186722091,"lng":114.13806360053,"name_en":"Water Street, Des Voeux Road West","name_zh":"水街, 德輔道西","bus_group_id":67},{"id":"1C6C94ABE1C78BBB","lat":22.287253,"lng":114.137668,"name_en":"KWAN YICK BUILDING PHASE II","name_zh":"均益大廈第二期","bus_group_id":67},{"id":"001070","lat":22.286627542091,"lng":114.13607459053,"name_en":"Hill Road, Des Voeux Road West","name_zh":"山道, 德輔道西","bus_group_id":68},{"id":"07E603DFCBEAEA77","lat":22.286586,"lng":114.136037,"name_en":"HILL ROAD","name_zh":"山道","bus_group_id":68},{"id":"001072","lat":22.277527002091,"lng":114.15772013053,"name_en":"HK Zoological & Botanical Garden, Garden Road","name_zh":"香港動植物公園, 花園道","bus_group_id":69},{"id":"001073","lat":22.278373862091,"lng":114.15978086053,"name_en":"St. John's Cathedral, Garden Road","name_zh":"聖約翰座堂, 花園道","bus_group_id":70},{"id":"20003571","lat":22.27822,"lng":114.15967,"name_en":"Garden Road","name_zh":"花園道","bus_group_id":70},{"id":"001074","lat":22.279523082091,"lng":114.16514437053,"name_en":"Admiralty Station - Admiralty Centre, Harcourt Road","name_zh":"金鐘站 - 海富中心, 夏慤道","bus_group_id":71},{"id":"3225E407F87D904C","lat":22.279438,"lng":114.165264,"name_en":"ADMIRALTY CENTRE","name_zh":"海富中心","bus_group_id":71},{"id":"001075","lat":22.281907662091,"lng":114.15431591053,"name_en":"Tai Kwun, Hollywood Road","name_zh":"大館, 荷李活道","bus_group_id":72},{"id":"20007409","lat":22.28198,"lng":114.1541,"name_en":"Hollywood Road, outside Aus Building","name_zh":"荷利活道, 歐氏大廈外","bus_group_id":72},{"id":"001076","lat":22.281372022091,"lng":114.15884246053,"name_en":"Alexandra House, Ice House Street","name_zh":"歷山大廈, 雪廠街","bus_group_id":73},{"id":"001077","lat":22.276268212091,"lng":114.15883771053,"name_en":"St. Joseph's College, Kennedy Road","name_zh":"聖若瑟書院, 堅尼地道","bus_group_id":74},{"id":"20003498","lat":22.27622,"lng":114.15875,"name_en":"No. 26 Kennedy Road","name_zh":"堅尼地道26號","bus_group_id":74},{"id":"001078","lat":22.276481502091,"lng":114.15748729053,"name_en":"Kennedy Heights, Kennedy Road","name_zh":"堅麗閣, 堅尼地道","bus_group_id":75},{"id":"20004563","lat":22.27651,"lng":114.15742,"name_en":"Kennedy Heights, Kennedy Road","name_zh":"堅尼地道, 堅麗閣","bus_group_id":75},{"id":"001079","lat":22.286364162091,"lng":114.13202184053,"name_en":"Collinson Street, Kennedy Town Praya","name_zh":"歌連臣街, 堅彌地城海旁","bus_group_id":76},{"id":"23D55F990E97E8DF","lat":22.286681,"lng":114.132047,"name_en":"QUEEN'S ROAD WEST","name_zh":"皇后大道西","bus_group_id":76},{"id":"001080","lat":22.284354042091,"lng":114.13017716053,"name_en":"Belcher Bay Park, Kennedy Town Praya","name_zh":"卑路乍灣公園, 堅彌地城海旁","bus_group_id":77},{"id":"001083","lat":22.284330652091,"lng":114.13037010053,"name_en":"Sands Street, Kennedy Town Praya","name_zh":"山市街, 堅彌地城海旁","bus_group_id":77},{"id":"001081","lat":22.284984992091,"lng":114.13095631053,"name_en":"Sai Cheung Street, Kennedy Town Praya","name_zh":"西祥街, 堅彌地城海旁","bus_group_id":78},{"id":"20002839","lat":22.2851,"lng":114.13109,"name_en":"Kennedy Town Praya, near Sai Cheung Street","name_zh":"堅尼地城海旁, 近西祥街","bus_group_id":78},{"id":"001082","lat":22.285471952091,"lng":114.13174101053,"name_en":"Kennedy Town Swimming Pool, Kennedy Town Praya","name_zh":"堅尼地城游泳池, 堅彌地城海旁","bus_group_id":79},{"id":"20006948","lat":22.28576,"lng":114.13169,"name_en":"Praya, Kennedy Town outside Kennedy Town Swimming Pool","name_zh":"堅彌地城海旁, 堅尼地城游泳池外","bus_group_id":79},{"id":"1BA80A40CD423D33","lat":22.285644,"lng":114.131865,"name_en":"KENNEDY TOWN SWIMMING POOL","name_zh":"堅尼地城泳池","bus_group_id":79},{"id":"001183","lat":22.285065892091,"lng":114.13168092053,"name_en":"Sai Cheung Street","name_zh":"西祥街","bus_group_id":79},{"id":"001083","lat":22.284330652091,"lng":114.13037010053,"name_en":"Sands Street, Kennedy Town Praya","name_zh":"山市街, 堅彌地城海旁","bus_group_id":80},{"id":"CEEA538B2BDFE329","lat":22.284264,"lng":114.130358,"name_en":"SANDS STREET","name_zh":"山市街","bus_group_id":80},{"id":"20003468","lat":22.28453,"lng":114.13036,"name_en":"Praya, Kennedy Town outside Belcher Bay Park","name_zh":"堅彌地城海旁, 卑路乍灣公園外","bus_group_id":80},{"id":"001084","lat":22.282471302091,"lng":114.15429220053,"name_en":"Lyndhurst Terrace","name_zh":"擺花街","bus_group_id":81},{"id":"001085","lat":22.275806862091,"lng":114.15609299053,"name_en":"YWCA, MacDonnell Road","name_zh":"女青年會, 麥當勞道","bus_group_id":82},{"id":"001086","lat":22.275547472091,"lng":114.15731072053,"name_en":"Tramway Path, MacDonnell Road","name_zh":"纜車徑, 麥當勞道","bus_group_id":83},{"id":"20014496","lat":22.27567,"lng":114.15708,"name_en":"MACDONNELL ROAD, near Hill View","name_zh":"麥當勞道, 近半山樓","bus_group_id":83},{"id":"001087","lat":22.275489902091,"lng":114.15810184053,"name_en":"St. Paul's Co-educational College, MacDonnell Road","name_zh":"聖保羅男女中學, 麥當勞道","bus_group_id":84},{"id":"20014497","lat":22.27553,"lng":114.15812,"name_en":"MACDONNELL ROAD, near St. Paul's Co-educational College.","name_zh":"麥當勞道, 近聖保羅男女中學","bus_group_id":84},{"id":"001088","lat":22.275341822091,"lng":114.15902156053,"name_en":"Dragon View, MacDonnell Road","name_zh":"龍景樓, 麥當勞道","bus_group_id":85},{"id":"001089","lat":22.275401042091,"lng":114.16118587053,"name_en":"Office of The PRC Ministry of Foreign Affairs, MacDonnell Road","name_zh":"外交部駐港特派員公署, 麥當勞道","bus_group_id":86},{"id":"20014498","lat":22.27551,"lng":114.16074,"name_en":"MACDONNELL ROAD, near Mackenny Court","name_zh":"麥當勞道, 近麥堅尼大廈","bus_group_id":86},{"id":"001090","lat":22.280306002091,"lng":114.16188677053,"name_en":"Murray Road","name_zh":"美利道","bus_group_id":87},{"id":"20007408","lat":22.28016,"lng":114.16186,"name_en":"Murray Road, outside Murray Road multi-story car park","name_zh":"美利道, 美利道多層停車場大廈外","bus_group_id":87},{"id":"001091","lat":22.284372122091,"lng":114.14469393053,"name_en":"Euston Court, Park Road","name_zh":"豫苑, 柏道","bus_group_id":88},{"id":"20007067","lat":22.28427,"lng":114.14425,"name_en":"Bonham Road, Kenyon Street","name_zh":"般咸道, 錦翠園","bus_group_id":88},{"id":"001092","lat":22.283869362091,"lng":114.14350996053,"name_en":"St. Stephen's Girls' College, Park Road","name_zh":"聖士提反女子中學, 柏道","bus_group_id":89},{"id":"20004541","lat":22.28425,"lng":114.14336,"name_en":"Bonham Road, Eastern Street","name_zh":"般咸道, 東邊街","bus_group_id":89},{"id":"001093","lat":22.266594622091,"lng":114.15989290053,"name_en":"Craigmin Road, Peak Road","name_zh":"忌利文道, 山頂道","bus_group_id":90},{"id":"001104","lat":22.266550152091,"lng":114.15989730053,"name_en":"Craigmin Road, Peak Road","name_zh":"忌利文道, 山頂道","bus_group_id":90},{"id":"001094","lat":22.269582722091,"lng":114.16615089053,"name_en":"Magazine Gap Road, Peak Road","name_zh":"馬己仙峽道, 山頂道","bus_group_id":91},{"id":"001095","lat":22.271160172091,"lng":114.16884350053,"name_en":"30 Peak Road, Peak Road","name_zh":"山頂道 30 號, 山頂道","bus_group_id":92},{"id":"001096","lat":22.270374722091,"lng":114.14960381053,"name_en":"The Peak","name_zh":"山頂","bus_group_id":93},{"id":"20014489","lat":22.27008,"lng":114.14988,"name_en":"The Peak Galleria (Bus Terminus under)","name_zh":"山頂廣場（下層巴士總站）","bus_group_id":93},{"id":"001097","lat":22.267945642091,"lng":114.16981318053,"name_en":"Wan Chai Gap Road, Peak Road","name_zh":"灣仔峽道, 山頂道","bus_group_id":94},{"id":"001098","lat":22.267210782091,"lng":114.15118856053,"name_en":"Mount Kellett Road, Peak Road","name_zh":"加列山道, 山頂道","bus_group_id":95},{"id":"001099","lat":22.265872392091,"lng":114.15387456053,"name_en":"The Peak Police Station, Peak Road","name_zh":"山頂警署, 山頂道","bus_group_id":96},{"id":"001100","lat":22.268340042091,"lng":114.16297031053,"name_en":"Guildford Road, Peak Road","name_zh":"僑福道, 山頂道","bus_group_id":97},{"id":"20014490","lat":22.26832,"lng":114.16292,"name_en":"PEAK ROAD, near 56 Peak Road B","name_zh":"山頂道, 近山頂道五十六號Ｂ","bus_group_id":97},{"id":"001101","lat":22.265483622091,"lng":114.15466382053,"name_en":"The Peak Police Station, Peak Road","name_zh":"山頂警署, 山頂道","bus_group_id":98},{"id":"001102","lat":22.266988832091,"lng":114.15186077053,"name_en":"Mount Kellett Road, Peak Road","name_zh":"加列山道, 山頂道","bus_group_id":99},{"id":"001103","lat":22.269872582091,"lng":114.16940181053,"name_en":"Taikoo House, Peak Road","name_zh":"太古大廈, 山頂道","bus_group_id":100},{"id":"001104","lat":22.266550152091,"lng":114.15989730053,"name_en":"Craigmin Road, Peak Road","name_zh":"忌利文道, 山頂道","bus_group_id":101},{"id":"001105","lat":22.268500322091,"lng":114.16367058053,"name_en":"Guildford Road, Peak Road","name_zh":"僑福道, 山頂道","bus_group_id":102},{"id":"20014493","lat":22.26854,"lng":114.16362,"name_en":"PEAK ROAD, near Sky Court Block 7","name_zh":"山頂道, 近摘星閣第７座","bus_group_id":102},{"id":"001106","lat":22.281823852091,"lng":114.15738082053,"name_en":"Pedder Street","name_zh":"畢打街","bus_group_id":103},{"id":"F91F9405B5B06039","lat":22.281924,"lng":114.157433,"name_en":"PEDDER STREET","name_zh":"畢打街","bus_group_id":103},{"id":"001107","lat":22.287395152091,"lng":114.15457705053,"name_en":"Central Government Pier, Man Kwong Street","name_zh":"中區政府碼頭, 民光街","bus_group_id":104},{"id":"B8CAE7A1372554AB","lat":22.287398,"lng":114.154591,"name_en":"CENTRAL GOVERNMENT PIER","name_zh":"中區政府碼頭","bus_group_id":104},{"id":"001108","lat":22.286725242091,"lng":114.15443116053,"name_en":"Central (Rumsey Street)","name_zh":"中環 (林士街)","bus_group_id":105},{"id":"F0B6112380784741","lat":22.286445,"lng":114.154064,"name_en":"RUMSEY STREET","name_zh":"林士街","bus_group_id":105},{"id":"001109","lat":22.278376602091,"lng":114.13095479053,"name_en":"Mount Davis Road, Pok Fu Lam Road","name_zh":"摩星嶺道, 薄扶林道","bus_group_id":106},{"id":"20004546","lat":22.27832,"lng":114.13116,"name_en":"Pokfulam Road near Mount Davis Road","name_zh":"薄扶林道近摩星嶺道","bus_group_id":106},{"id":"001110","lat":22.279835062091,"lng":114.13126545053,"name_en":"Fulham Garden, Pok Fu Lam Road","name_zh":"富林苑, 薄扶林道","bus_group_id":107},{"id":"001111","lat":22.282022522091,"lng":114.13223321053,"name_en":"Pokfield Road, Pok Fu Lam Road","name_zh":"蒲飛路, 薄扶林道","bus_group_id":108},{"id":"20000174","lat":22.28177,"lng":114.13204,"name_en":"Pok Fu Lam Road, Pok Field Road","name_zh":"薄扶林道, 蒲飛路","bus_group_id":108},{"id":"001112","lat":22.283611332091,"lng":114.13295982053,"name_en":"Lady Ho Tung Hall, Pok Fu Lam Road","name_zh":"何東夫人堂, 薄扶林道","bus_group_id":109},{"id":"C904C536EC3E0827","lat":22.283365,"lng":114.132773,"name_en":"LADY HO TUNG HALL","name_zh":"何東夫人堂","bus_group_id":109},{"id":"001113","lat":22.284286232091,"lng":114.13491292053,"name_en":"HKU Centennial Campus, Pok Fu Lam Road","name_zh":"香港大學百周年校園, 薄扶林道","bus_group_id":110},{"id":"001114","lat":22.285287532091,"lng":114.13837291053,"name_en":"St. Stephen's Church College, Pok Fu Lam Road","name_zh":"聖士提反堂中學, 薄扶林道","bus_group_id":111},{"id":"20000092","lat":22.28531,"lng":114.13835,"name_en":"Pok Fu Lam Road, opposite St. Stephen's Church College","name_zh":"薄扶林道, 聖士提反堂中學對面","bus_group_id":111},{"id":"001115","lat":22.281620582091,"lng":114.13225102053,"name_en":"Pokfield Road","name_zh":"蒲飛路","bus_group_id":112},{"id":"20000174","lat":22.28177,"lng":114.13204,"name_en":"Pok Fu Lam Road, Pok Field Road","name_zh":"薄扶林道, 蒲飛路","bus_group_id":112},{"id":"8A8E1370026F639C","lat":22.28195,"lng":114.132187,"name_en":"POKFIELD ROAD","name_zh":"蒲飛路","bus_group_id":112},{"id":"001116","lat":22.283588212091,"lng":114.13569933053,"name_en":"HKU West Gate, Pok Fu Lam Road","name_zh":"香港大學西閘, 薄扶林道","bus_group_id":113},{"id":"1843FAE700FCA5AF","lat":22.283619,"lng":114.136099,"name_en":"CHIU SHEUNG SCHOOL HONG KONG","name_zh":"香港潮商學校","bus_group_id":113},{"id":"001117","lat":22.283819002091,"lng":114.13341793053,"name_en":"Lady Ho Tung Hall, Pok Fu Lam Road","name_zh":"何東夫人堂, 薄扶林道","bus_group_id":114},{"id":"A10692659C39EB12","lat":22.283691,"lng":114.13334,"name_en":"LADY HO TUNG HALL","name_zh":"何東夫人堂","bus_group_id":114},{"id":"20014877","lat":22.28413,"lng":114.13352,"name_en":"POK FU LAM ROAD, near Lady Ho Tung Hall, THE UNIVERSITY OF HONG KONG JOCKEY CLUB STUDENT VILLAGE 1","name_zh":"薄扶林道, 近香港大學賽馬會第一舍堂村　何東夫人紀念堂","bus_group_id":114},{"id":"20000009","lat":22.28405,"lng":114.13369,"name_en":"Pok Fu Lam Road, opposite The Belcher's","name_zh":"薄扶林道, 寶翠園對面","bus_group_id":114},{"id":"001118","lat":22.278417902091,"lng":114.13115417053,"name_en":"Pok Fu Lam Road Playground, Pok Fu Lam Road","name_zh":"薄扶林道遊樂場, 薄扶林道","bus_group_id":115},{"id":"20004546","lat":22.27832,"lng":114.13116,"name_en":"Pokfulam Road near Mount Davis Road","name_zh":"薄扶林道近摩星嶺道","bus_group_id":115},{"id":"001119","lat":22.285487302091,"lng":114.13994098053,"name_en":"Li Sing Primary School, Pok Fu Lam Road","name_zh":"李陞小學, 薄扶林道","bus_group_id":116},{"id":"20000300","lat":22.28539,"lng":114.13984,"name_en":"Pok Fu Lam Road, outside Li Sing Primary School","name_zh":"薄扶林道, 李陞小學外","bus_group_id":116},{"id":"001120","lat":22.281996732091,"lng":114.13241370053,"name_en":"Pokfield Road, Pok Fu Lam Road","name_zh":"蒲飛路, 薄扶林道","bus_group_id":117},{"id":"20000174","lat":22.28177,"lng":114.13204,"name_en":"Pok Fu Lam Road, Pok Field Road","name_zh":"薄扶林道, 蒲飛路","bus_group_id":117},{"id":"001121","lat":22.283815052091,"lng":114.15559526053,"name_en":"Central Market, Queen Victoria Street","name_zh":"中環街市, 域多利皇后街","bus_group_id":118},{"id":"D6D316FEAEC6793A","lat":22.283791,"lng":114.155654,"name_en":"QUEEN VICTORIA STREET","name_zh":"域多利皇后街","bus_group_id":118},{"id":"001122","lat":22.279919512091,"lng":114.15903769053,"name_en":"HSBC Main Building, Queen's Road Central","name_zh":"滙豐總行大廈, 皇后大道中","bus_group_id":119},{"id":"A95174A6FE24B3A6","lat":22.279883,"lng":114.159311,"name_en":"CHEUNG KONG CENTER","name_zh":"長江集團中心","bus_group_id":119},{"id":"001124","lat":22.284328902091,"lng":114.15390976053,"name_en":"The Center, Queen's Road Central","name_zh":"中環中心, 皇后大道中","bus_group_id":120},{"id":"20003519","lat":22.28412,"lng":114.1542,"name_en":"Queen's Road Central No.138","name_zh":"皇后大道中138號外","bus_group_id":120},{"id":"001125","lat":22.284833042091,"lng":114.15330172053,"name_en":"Wellington Street, Queen's Road Central","name_zh":"威靈頓街, 皇后大道中","bus_group_id":121},{"id":"D95C76946ACCA9D6","lat":22.284986,"lng":114.153289,"name_en":"WELLINGTON STREET","name_zh":"威靈頓街","bus_group_id":121},{"id":"001126","lat":22.284443202091,"lng":114.15115814053,"name_en":"Hollywood Terrace, Queen's Road Central","name_zh":"荷李活華庭, 皇后大道中","bus_group_id":122},{"id":"001127","lat":22.285970352091,"lng":114.14910338053,"name_en":"Sheung Wan Civic Centre, Queen's Road Central","name_zh":"上環文娛中心, 皇后大道中","bus_group_id":123},{"id":"3688FF86BC378100","lat":22.286039,"lng":114.149162,"name_en":"SHEUNG WAN CIVIC CENTRE","name_zh":"上環文娛中心","bus_group_id":123},{"id":"001128","lat":22.286430502091,"lng":114.13350308053,"name_en":"Yat Fu Lane, Queen's Road West","name_zh":"日富里, 皇后大道西","bus_group_id":124},{"id":"FED5FC9BD7B35D53","lat":22.286366,"lng":114.133593,"name_en":"SHEK TONG TSUI","name_zh":"石塘咀","bus_group_id":124},{"id":"001129","lat":22.286847912091,"lng":114.14426832053,"name_en":"Eastern Street, Queen's Road West","name_zh":"東邊街, 皇后大道西","bus_group_id":125},{"id":"001130","lat":22.286844142091,"lng":114.14276129053,"name_en":"Centre Street, Queen's Road West","name_zh":"正街, 皇后大道西","bus_group_id":126},{"id":"20000298","lat":22.28685,"lng":114.1425,"name_en":"Queen's Road West, near Centre Street","name_zh":"皇后大道西, 近正街","bus_group_id":126},{"id":"001131","lat":22.286915762091,"lng":114.14144558053,"name_en":"Western Street, Queen's Road West","name_zh":"西邊街, 皇后大道西","bus_group_id":127},{"id":"20000299","lat":22.2869,"lng":114.14116,"name_en":"Queen's Road West, near Western Street","name_zh":"皇后大道西, 近西邊街","bus_group_id":127},{"id":"001132","lat":22.286757962091,"lng":114.13975003053,"name_en":"Chiu Kwong Street, Queen's Road West","name_zh":"朝光街, 皇后大道西","bus_group_id":128},{"id":"1EE69CF61423B432","lat":22.286741,"lng":114.139727,"name_en":"CHIU KWONG STREET","name_zh":"朝光街","bus_group_id":128},{"id":"001133","lat":22.285969012091,"lng":114.13561606053,"name_en":"Shek Tong Tsui Complex, Queen's Road West","name_zh":"石塘咀市政大廈, 皇后大道西","bus_group_id":129},{"id":"2BAE0D3A6CF25EB8","lat":22.285939,"lng":114.135562,"name_en":"SHEK TONG TSUI UC COMPLEX","name_zh":"石塘咀市政大廈","bus_group_id":129},{"id":"001134","lat":22.286525342091,"lng":114.14736012053,"name_en":"Queen's Terrace, Queen's Road West","name_zh":"帝后華庭, 皇后大道西","bus_group_id":130},{"id":"20000297","lat":22.28646,"lng":114.1473,"name_en":"Queen's Road West No.62","name_zh":"皇后大道西62號外","bus_group_id":130},{"id":"002759","lat":22.286911752091,"lng":114.14749216053,"name_en":"Queen Street","name_zh":"皇后街","bus_group_id":130},{"id":"001135","lat":22.286631802091,"lng":114.14534782053,"name_en":"Sutherland Street, Queen's Road West","name_zh":"修打蘭街, 皇后大道西","bus_group_id":131},{"id":"001136","lat":22.278493752091,"lng":114.16445856053,"name_en":"Admiralty Station - Admiralty Garden, Queensway","name_zh":"金鐘站 - 金鐘花園, 金鐘道","bus_group_id":132},{"id":"3FCC00D1D01ACD28","lat":22.27841,"lng":114.16453,"name_en":"ADMIRALTY STATION (B1)","name_zh":"金鐘站 (B1)","bus_group_id":132},{"id":"003844","lat":22.278920822091,"lng":114.16451942053,"name_en":"Admiralty Station - Exit C","name_zh":"金鐘站 - C 出口","bus_group_id":132},{"id":"001137","lat":22.278348592091,"lng":114.16493918053,"name_en":"Admiralty Station - United Centre, Queensway","name_zh":"金鐘站 - 統一中心, 金鐘道","bus_group_id":133},{"id":"001140","lat":22.278070732091,"lng":114.16486695053,"name_en":"Admiralty Station - Pacific Place, Queensway","name_zh":"金鐘站 - 太古廣場, 金鐘道","bus_group_id":133},{"id":"001138","lat":22.278641252091,"lng":114.16563501053,"name_en":"Admiralty Station - Exit D","name_zh":"金鐘站 - D 出口","bus_group_id":134},{"id":"8C4D4E07609BC746","lat":22.278445,"lng":114.16528,"name_en":"ADMIRALTY (EAST) TERMINUS","name_zh":"金鐘(東)總站","bus_group_id":134},{"id":"001139","lat":22.279678602091,"lng":114.16378945053,"name_en":"Admiralty Station - Exit B","name_zh":"金鐘站 - B 出口","bus_group_id":135},{"id":"001140","lat":22.278070732091,"lng":114.16486695053,"name_en":"Admiralty Station - Pacific Place, Queensway","name_zh":"金鐘站 - 太古廣場, 金鐘道","bus_group_id":136},{"id":"3007D34FB91FB27E","lat":22.27827,"lng":114.16508,"name_en":"ADMIRALTY STATION","name_zh":"金鐘站","bus_group_id":136},{"id":"20000020","lat":22.27846,"lng":114.16468,"name_en":"Queensway, outside Golden Bell Gallery","name_zh":"金鐘道, 金鐘廊外","bus_group_id":136},{"id":"001141","lat":22.278413762091,"lng":114.16387262053,"name_en":"Admiralty Station - High Court, Queensway","name_zh":"金鐘站 - 高等法院, 金鐘道","bus_group_id":137},{"id":"9D0E44D3210264C3","lat":22.27855,"lng":114.163505,"name_en":"HIGH COURT","name_zh":"高等法院","bus_group_id":137},{"id":"001142","lat":22.279480102091,"lng":114.16214434053,"name_en":"Bank of China Tower, Queensway","name_zh":"中銀大廈, 金鐘道","bus_group_id":138},{"id":"A63B90588F747496","lat":22.279446,"lng":114.162299,"name_en":"BANK OF CHINA TOWER","name_zh":"中銀大廈","bus_group_id":138},{"id":"001143","lat":22.284964992091,"lng":114.15981958053,"name_en":"Two International Finance Centre, Man Yiu Street","name_zh":"國際金融中心二期, 民耀街","bus_group_id":139},{"id":"001144","lat":22.285016122091,"lng":114.15994519053,"name_en":"Two International Finance Centre, Man Yiu Street","name_zh":"國際金融中心二期, 民耀街","bus_group_id":139},{"id":"20003515","lat":22.28515,"lng":114.15979,"name_en":"Man Yiu Street outside Two IFC","name_zh":"民耀街, 國際金融中心二期外","bus_group_id":139},{"id":"001144","lat":22.285016122091,"lng":114.15994519053,"name_en":"Two International Finance Centre, Man Yiu Street","name_zh":"國際金融中心二期, 民耀街","bus_group_id":140},{"id":"20003515","lat":22.28515,"lng":114.15979,"name_en":"Man Yiu Street outside Two IFC","name_zh":"民耀街, 國際金融中心二期外","bus_group_id":140},{"id":"001145","lat":22.286355062091,"lng":114.15973537053,"name_en":"Central Ferry Piers","name_zh":"中環碼頭","bus_group_id":141},{"id":"C1FC4F003C9031B3","lat":22.286203,"lng":114.159814,"name_en":"CENTRAL (CENTRAL FERRY PIERS)","name_zh":"中環渡輪碼頭","bus_group_id":141},{"id":"001146","lat":22.282571772091,"lng":114.14670968053,"name_en":"Ying Wa Girls' School, Robinson Road","name_zh":"英華女學校, 羅便臣道","bus_group_id":142},{"id":"20003566","lat":22.28248,"lng":114.14671,"name_en":"No.101 Robinson Road","name_zh":"羅便臣道101號","bus_group_id":142},{"id":"001147","lat":22.282146492091,"lng":114.14758063053,"name_en":"Peaksville, Robinson Road","name_zh":"蔚巒閣, 羅便臣道","bus_group_id":143},{"id":"20003568","lat":22.28239,"lng":114.14724,"name_en":"No. 76 Robinson Road","name_zh":"羅便臣道76號","bus_group_id":143},{"id":"001148","lat":22.280494672091,"lng":114.15057437053,"name_en":"Seymour Road, Robinson Road","name_zh":"西摩道, 羅便臣道","bus_group_id":144},{"id":"001156","lat":22.280757142091,"lng":114.15072530053,"name_en":"Robinson Road, Seymour Road","name_zh":"羅便臣道, 西摩道","bus_group_id":144},{"id":"20003569","lat":22.28067,"lng":114.15045,"name_en":"No. 60 Robinson Road","name_zh":"羅便臣道60號","bus_group_id":144},{"id":"001149","lat":22.278541232091,"lng":114.15324279053,"name_en":"Raimondi College, Robinson Road","name_zh":"高主教書院, 羅便臣道","bus_group_id":145},{"id":"20003570","lat":22.2785,"lng":114.15326,"name_en":"No. 4 Robinson Road","name_zh":"羅便臣道4號","bus_group_id":145},{"id":"001150","lat":22.276011452091,"lng":114.15489341053,"name_en":"Garden Terrace, Robinson Road","name_zh":"花園台, 羅便臣道","bus_group_id":146},{"id":"001151","lat":22.278684232091,"lng":114.16592058053,"name_en":"Admiralty Station - Rodney Street","name_zh":"金鐘站 - 樂禮街","bus_group_id":147},{"id":"001152","lat":22.282034062091,"lng":114.12264943053,"name_en":"Kennedy Town","name_zh":"堅尼地城","bus_group_id":148},{"id":"001162","lat":22.281730232091,"lng":114.12264206053,"name_en":"Sai Ning Street, Victoria Road","name_zh":"西寧街, 域多利道","bus_group_id":148},{"id":"001153","lat":22.286218922091,"lng":114.13939512053,"name_en":"Second Street","name_zh":"第二街","bus_group_id":149},{"id":"20007656","lat":22.28619,"lng":114.13957,"name_en":"Second Street, near Hoi Sing Building","name_zh":"第二街, 近海昇大廈","bus_group_id":149},{"id":"001154","lat":22.282826282091,"lng":114.14880373053,"name_en":"Jadestone Court, Seymour Road","name_zh":"寶玉閣, 西摩道","bus_group_id":150},{"id":"7D77D56CB708BCED","lat":22.283098,"lng":114.148887,"name_en":"LADDER STREET","name_zh":"樓梯街","bus_group_id":150},{"id":"20000017","lat":22.28315,"lng":114.14881,"name_en":"Caine Road, Ladder Street","name_zh":"堅道, 樓梯街","bus_group_id":150},{"id":"001155","lat":22.282494302091,"lng":114.14939124053,"name_en":"Castle Road, Seymour Road","name_zh":"衛城道, 西摩道","bus_group_id":151},{"id":"002732","lat":22.282176712091,"lng":114.14925129053,"name_en":"Merry Court, Castle Road","name_zh":"美麗閣, 衛城道","bus_group_id":151},{"id":"001156","lat":22.280757142091,"lng":114.15072530053,"name_en":"Robinson Road, Seymour Road","name_zh":"羅便臣道, 西摩道","bus_group_id":152},{"id":"20003569","lat":22.28067,"lng":114.15045,"name_en":"No. 60 Robinson Road","name_zh":"羅便臣道60號","bus_group_id":152},{"id":"00115688D89603F9","lat":22.445861,"lng":114.022618,"name_en":"THE FAMILY PLANNING ASSOCIATION OF HK","name_zh":"香港家庭計劃指導會","bus_group_id":153},{"id":"0D98A0E934584FD0","lat":22.445861,"lng":114.022618,"name_en":"THE FAMILY PLANNING ASSOCIATION OF HK","name_zh":"香港家庭計劃指導會","bus_group_id":153},{"id":"K68-U130","lat":22.446002,"lng":114.022607,"name_en":"Yuen Long Home for the Aged Blind","name_zh":"元朗盲人安老院","bus_group_id":153},{"id":"K66-U040","lat":22.446002,"lng":114.022607,"name_en":"Yuen Long Home for the Aged Blind","name_zh":"元朗盲人安老院","bus_group_id":153},{"id":"001157","lat":22.279161072091,"lng":114.16399066053,"name_en":"Admiralty Station - Tamar Street","name_zh":"金鐘站 - 添馬街","bus_group_id":154},{"id":"16C6B12E0609B683","lat":22.279108,"lng":114.164002,"name_en":"LIPPO CENTRE","name_zh":"力寶中心","bus_group_id":154},{"id":"001158","lat":22.278848112091,"lng":114.15636631053,"name_en":"Government House, Upper Albert Road","name_zh":"香港禮賓府, 上亞厘畢道","bus_group_id":155},{"id":"D1601C6EDAB39F29","lat":22.278817,"lng":114.156481,"name_en":"GOVERNMENT HOUSE","name_zh":"香港禮賓府","bus_group_id":155},{"id":"001159","lat":22.275971142091,"lng":114.11742984053,"name_en":"Mount Davis Path, Victoria Road","name_zh":"摩星嶺徑, 域多利道","bus_group_id":156},{"id":"001168","lat":22.275760642091,"lng":114.11752426053,"name_en":"Mount Davis Path, Victoria Road","name_zh":"摩星嶺徑, 域多利道","bus_group_id":156},{"id":"001160","lat":22.279145082091,"lng":114.11783921053,"name_en":"Caritas Jockey Club Hostel, Victoria Road","name_zh":"明愛賽馬會宿舍, 域多利道","bus_group_id":157},{"id":"001161","lat":22.280930762091,"lng":114.11960259053,"name_en":"Island West Transfer Station, Victoria Road","name_zh":"港島西廢物轉運站, 域多利道","bus_group_id":158},{"id":"001162","lat":22.281730232091,"lng":114.12264206053,"name_en":"Sai Ning Street, Victoria Road","name_zh":"西寧街, 域多利道","bus_group_id":159},{"id":"20006972","lat":22.28176,"lng":114.1227,"name_en":"Victoria Road outside Kennedy Town Terminus","name_zh":"域多利道堅尼地城總站外","bus_group_id":159},{"id":"010D8E1BE34538EE","lat":22.281952,"lng":114.122756,"name_en":"KENNEDY TOWN BUS TERMINUS","name_zh":"堅尼地城巴士總站","bus_group_id":159},{"id":"001163","lat":22.282182852091,"lng":114.12521679053,"name_en":"Sai See Street, Victoria Road","name_zh":"西市街, 域多利道","bus_group_id":160},{"id":"03411E63565CD911","lat":22.282079,"lng":114.125522,"name_en":"KA WAI MAN ROAD","name_zh":"加惠民道","bus_group_id":160},{"id":"001164","lat":22.282072692091,"lng":114.12493465053,"name_en":"Ka Wai Man Road, Victoria Road","name_zh":"加惠民道, 域多利道","bus_group_id":161},{"id":"001165","lat":22.281063612091,"lng":114.12080737053,"name_en":"Serene Court, Victoria Road","name_zh":"西寧閣, 域多利道","bus_group_id":162},{"id":"20003508","lat":22.28089,"lng":114.12046,"name_en":"Victoria Road, opposite Serene Court","name_zh":"域多利道, 西寧閣對面","bus_group_id":162},{"id":"001166","lat":22.280253272091,"lng":114.11868249053,"name_en":"Island West Transfer Station, Victoria Road","name_zh":"港島西廢物轉運站, 域多利道","bus_group_id":163},{"id":"001167","lat":22.278603752091,"lng":114.11778908053,"name_en":"Caritas Jockey Club Hostel, Victoria Road","name_zh":"明愛賽馬會宿舍, 域多利道","bus_group_id":164},{"id":"001168","lat":22.275760642091,"lng":114.11752426053,"name_en":"Mount Davis Path, Victoria Road","name_zh":"摩星嶺徑, 域多利道","bus_group_id":165},{"id":"001170","lat":22.287492242091,"lng":114.15733493053,"name_en":"Central Pier 3, Man Kwong Street","name_zh":"中環 3 號碼頭, 民光街","bus_group_id":166},{"id":"D996531BBC23B44D","lat":22.287565,"lng":114.157409,"name_en":"CENTRAL FERRY PIER NO.3","name_zh":"中環三號碼頭","bus_group_id":166},{"id":"C360EB0956976C4D","lat":22.287587,"lng":114.157308,"name_en":"CENTRAL FERRY PIER NO.3","name_zh":"中環三號碼頭","bus_group_id":166},{"id":"001171","lat":22.286604172091,"lng":114.16035307053,"name_en":"Central (Star Ferry)","name_zh":"中環 (天星碼頭)","bus_group_id":167},{"id":"20000284","lat":22.28671,"lng":114.16013,"name_en":"Central Ferry Piers","name_zh":"中環碼頭","bus_group_id":167},{"id":"001173","lat":22.284360062091,"lng":114.15596819053,"name_en":"Hang Seng Bank Headquarters, Des Voeux Road Central","name_zh":"恒生銀行總行大廈, 德輔道中","bus_group_id":168},{"id":"67387941757BB9DC","lat":22.28425,"lng":114.155869,"name_en":"CENTRAL MARKET","name_zh":"中環街市","bus_group_id":168},{"id":"AD2AE1E443FB8908","lat":22.284463,"lng":114.155914,"name_en":"HANG SENG BANK HEAD OFFICE","name_zh":"恒生銀行總行","bus_group_id":168},{"id":"001174","lat":22.279675002091,"lng":114.16307119053,"name_en":"Admiralty Station - Lippo Centre, Cotton Tree Drive","name_zh":"金鐘站 - 力寶中心, 紅棉路","bus_group_id":169},{"id":"C804CCACB2781EEE","lat":22.279831,"lng":114.163252,"name_en":"LIPPO CENTRE (E1)","name_zh":"力寶中心 (E1)","bus_group_id":169},{"id":"001175","lat":22.286597682091,"lng":114.15157623053,"name_en":"Cleverly Street, Des Voeux Road Central","name_zh":"急庇利街, 德輔道中","bus_group_id":170},{"id":"SHW","lat":22.286599015881464,"lng":114.15201346385626,"name_en":"Sheung Wan","name_zh":"上環","bus_group_id":170},{"id":"001176","lat":22.285071342091,"lng":114.15857719053,"name_en":"IFC Mall, Man Cheung Street","name_zh":"國際金融中心商場, 民祥街","bus_group_id":171},{"id":"C7392BC1280A591E","lat":22.28493,"lng":114.158454,"name_en":"HONG KONG STATION","name_zh":"香港站","bus_group_id":171},{"id":"001177","lat":22.284611882091,"lng":114.12845352053,"name_en":"Belcher Bay","name_zh":"卑路乍灣","bus_group_id":172},{"id":"7959F14FBCC06B74","lat":22.284441,"lng":114.128291,"name_en":"KENNEDY TOWN BUS TERMINUS","name_zh":"堅尼地城巴士總站","bus_group_id":172},{"id":"001178","lat":22.285205812091,"lng":114.15761230053,"name_en":"Hong Kong Station, Man Cheung Street","name_zh":"香港站, 民祥街","bus_group_id":173},{"id":"001180","lat":22.283258052091,"lng":114.15961761053,"name_en":"General Post Office, Connaught Place","name_zh":"郵政總局, 康樂廣場","bus_group_id":174},{"id":"9013CD4C1D5BFF3E","lat":22.283402,"lng":114.159239,"name_en":"GENERAL POST OFFICE","name_zh":"郵政總局","bus_group_id":174},{"id":"001181","lat":22.284417192091,"lng":114.15666707053,"name_en":"Queen Victoria Street, Connaught Road Central","name_zh":"域多利皇后街, 干諾道中","bus_group_id":175},{"id":"228D031FB197691F","lat":22.284333,"lng":114.156723,"name_en":"QUEEN VICTORIA STREET","name_zh":"域多利皇后街","bus_group_id":175},{"id":"001183","lat":22.285065892091,"lng":114.13168092053,"name_en":"Sai Cheung Street","name_zh":"西祥街","bus_group_id":176},{"id":"001184","lat":22.284417902091,"lng":114.15575187053,"name_en":"Central Market, Des Voeux Road Central","name_zh":"中環街市, 德輔道中","bus_group_id":177},{"id":"67387941757BB9DC","lat":22.28425,"lng":114.155869,"name_en":"CENTRAL MARKET","name_zh":"中環街市","bus_group_id":177},{"id":"001185","lat":22.285954582091,"lng":114.15497687053,"name_en":"Wing Wo Street, Connaught Road Central","name_zh":"永和街, 干諾道中","bus_group_id":178},{"id":"001186","lat":22.274918352091,"lng":114.11793506053,"name_en":"Felix Villas","name_zh":"摩星嶺","bus_group_id":179},{"id":"001187","lat":22.286401352091,"lng":114.15288294053,"name_en":"Wing On Centre, Des Voeux Road Central","name_zh":"永安中心, 德輔道中","bus_group_id":180},{"id":"A81B13297DB1C481","lat":22.286265,"lng":114.152753,"name_en":"MAN WA LANE","name_zh":"文華里","bus_group_id":180},{"id":"001188","lat":22.283597812091,"lng":114.13606114053,"name_en":"Chiu Sheung School Hong Kong, Pok Fu Lam Road","name_zh":"香港潮商學校, 薄扶林道","bus_group_id":181},{"id":"1843FAE700FCA5AF","lat":22.283619,"lng":114.136099,"name_en":"CHIU SHEUNG SCHOOL HONG KONG","name_zh":"香港潮商學校","bus_group_id":181},{"id":"001190","lat":22.287790952091,"lng":114.13863698053,"name_en":"Water Street","name_zh":"水街","bus_group_id":182},{"id":"20003518","lat":22.28756,"lng":114.13887,"name_en":"Des Voeux Road West, near Chiu Kwong Street","name_zh":"德輔道西, 近朝光街","bus_group_id":182},{"id":"001191","lat":22.288542812091,"lng":114.14171663053,"name_en":"Connaught Garden, Connaught Road West","name_zh":"高樂花園, 干諾道西","bus_group_id":183},{"id":"FB0488A31D3C13B8","lat":22.28858,"lng":114.141704,"name_en":"CONNAUGHT GARDEN","name_zh":"高樂花園","bus_group_id":183},{"id":"001192","lat":22.287246062091,"lng":114.13780956053,"name_en":"Kwan Yick Building Phase II, Des Voeux Road West","name_zh":"均益大廈第二期, 德輔道西","bus_group_id":184},{"id":"1C6C94ABE1C78BBB","lat":22.287253,"lng":114.137668,"name_en":"KWAN YICK BUILDING PHASE II","name_zh":"均益大廈第二期","bus_group_id":184},{"id":"1EDCDB755F40EB55","lat":22.287296,"lng":114.137838,"name_en":"KWAN YICK BUILDING PHASE II","name_zh":"均益大廈第二期","bus_group_id":184},{"id":"B6606A91B6DE64E3","lat":22.287136,"lng":114.138029,"name_en":"WATER STREET","name_zh":"水街","bus_group_id":184},{"id":"001193","lat":22.288404102091,"lng":114.14734488053,"name_en":"Queen Street, Connaught Road West","name_zh":"皇后街, 干諾道西","bus_group_id":185},{"id":"6B7C2A21D95241A5","lat":22.288394,"lng":114.147159,"name_en":"QUEEN STREET","name_zh":"皇后街","bus_group_id":185},{"id":"001195","lat":22.286879172091,"lng":114.15919907053,"name_en":"Central Pier 5","name_zh":"中環 5 號碼頭","bus_group_id":186},{"id":"255CE76A95FC1A80","lat":22.28698,"lng":114.15918,"name_en":"CENTRAL FERRY PIER NO.5","name_zh":"中環五號碼頭","bus_group_id":186},{"id":"001196","lat":22.286284332091,"lng":114.15649042053,"name_en":"Hong Kong Station","name_zh":"香港站","bus_group_id":187},{"id":"A81CBBDC8206A166","lat":22.286179,"lng":114.156633,"name_en":"CENTRAL (HONG KONG STATION) BUS TERMINUS","name_zh":"中環(香港站)總站","bus_group_id":187},{"id":"001197","lat":22.277099782091,"lng":114.23133555053,"name_en":"Ming Wah Dai Ha Block 1, A Kung Ngam Road","name_zh":"明華大廈 1 座, 阿公岩道","bus_group_id":188},{"id":"001198","lat":22.278044492091,"lng":114.23138752053,"name_en":"Ming Wah Dai Ha Block F, A Kung Ngam Road","name_zh":"明華大廈 F 座, 阿公岩道","bus_group_id":189},{"id":"001202","lat":22.277775542091,"lng":114.23144439053,"name_en":"Ming Wah Dai Ha Block G, A Kung Ngam Road","name_zh":"明華大廈 G 座, 阿公岩道","bus_group_id":189},{"id":"001199","lat":22.279122682091,"lng":114.23134398053,"name_en":"Ming Wah Dai Ha Block B, A Kung Ngam Road","name_zh":"明華大廈 B 座, 阿公岩道","bus_group_id":190},{"id":"001203","lat":22.278860202091,"lng":114.23140650053,"name_en":"Ming Wah Dai Ha Block C, A Kung Ngam Road","name_zh":"明華大廈 C 座, 阿公岩道","bus_group_id":190},{"id":"001200","lat":22.280627002091,"lng":114.23129463053,"name_en":"Shau Kei Wan Government Primary School, A Kung Ngam Road","name_zh":"筲箕灣官立小學, 阿公岩道","bus_group_id":191},{"id":"001201","lat":22.281207892091,"lng":114.23148260053,"name_en":"Shau Kei Wan Government Primary School, A Kung Ngam Road","name_zh":"筲箕灣官立小學, 阿公岩道","bus_group_id":192},{"id":"001202","lat":22.277775542091,"lng":114.23144439053,"name_en":"Ming Wah Dai Ha Block G, A Kung Ngam Road","name_zh":"明華大廈 G 座, 阿公岩道","bus_group_id":193},{"id":"001203","lat":22.278860202091,"lng":114.23140650053,"name_en":"Ming Wah Dai Ha Block C, A Kung Ngam Road","name_zh":"明華大廈 C 座, 阿公岩道","bus_group_id":194},{"id":"001204","lat":22.275838032091,"lng":114.23108866053,"name_en":"Ming Wah Dai Ha Block 1, A Kung Ngam Road","name_zh":"明華大廈 1 座, 阿公岩道","bus_group_id":195},{"id":"001205","lat":22.282040992091,"lng":114.23202080053,"name_en":"A Kung Ngam Village Road","name_zh":"阿公岩村道","bus_group_id":196},{"id":"001206","lat":22.281980102091,"lng":114.23194136053,"name_en":"A Kung Ngam Village Road","name_zh":"阿公岩村道","bus_group_id":196},{"id":"001206","lat":22.281980102091,"lng":114.23194136053,"name_en":"A Kung Ngam Village Road","name_zh":"阿公岩村道","bus_group_id":197},{"id":"001207","lat":22.278421122091,"lng":114.22833128053,"name_en":"Shau Kei Wan","name_zh":"筲箕灣","bus_group_id":198},{"id":"4C923274E731F539","lat":22.278333,"lng":114.2283,"name_en":"SHAU KEI WAN BUS TERMINUS","name_zh":"筲箕灣巴士總站","bus_group_id":198},{"id":"1E7D74AE0C8EDADC","lat":22.278542,"lng":114.228309,"name_en":"SHAU KEI WAN BUS TERMINUS","name_zh":"筲箕灣巴士總站","bus_group_id":198},{"id":"F851BA3473962BCA","lat":22.27849,"lng":114.228309,"name_en":"SHAU KEI WAN BUS TERMINUS","name_zh":"筲箕灣巴士總站","bus_group_id":198},{"id":"001208","lat":22.285277372091,"lng":114.19954957053,"name_en":"Oxford Court, Braemar Hill Road","name_zh":"豐林閣, 寶馬山道","bus_group_id":199},{"id":"29A5797CA506CDEE","lat":22.285157,"lng":114.199581,"name_en":"BRAEMAR HILL MANSIONS (HKSYU)","name_zh":"賽西湖大廈(樹仁大學)","bus_group_id":199},{"id":"001211","lat":22.285458182091,"lng":114.19968480053,"name_en":"Braemar Hill Mansions, Braemar Hill Road","name_zh":"賽西湖大廈, 寶馬山道","bus_group_id":199},{"id":"001209","lat":22.287079392091,"lng":114.20121196053,"name_en":"Kiangsu-Chekiang College, Braemar Hill Road","name_zh":"蘇浙公學, 寶馬山道","bus_group_id":200},{"id":"001210","lat":22.287635422091,"lng":114.20207163053,"name_en":"Ho King View, Braemar Hill Road","name_zh":"豪景, 寶馬山道","bus_group_id":201},{"id":"001211","lat":22.285458182091,"lng":114.19968480053,"name_en":"Braemar Hill Mansions, Braemar Hill Road","name_zh":"賽西湖大廈, 寶馬山道","bus_group_id":202},{"id":"29A5797CA506CDEE","lat":22.285157,"lng":114.199581,"name_en":"BRAEMAR HILL MANSIONS (HKSYU)","name_zh":"賽西湖大廈(樹仁大學)","bus_group_id":202},{"id":"001212","lat":22.286712192091,"lng":114.20065842053,"name_en":"Choi Sai Woo Park, Braemar Hill Road","name_zh":"賽西湖公園, 寶馬山道","bus_group_id":203},{"id":"001213","lat":22.281133262091,"lng":114.19006592053,"name_en":"Victoria Park, Causeway Road","name_zh":"維多利亞公園, 高士威道","bus_group_id":204},{"id":"EAFC59DD23C39D5C","lat":22.281066,"lng":114.189939,"name_en":"VICTORIA PARK","name_zh":"維多利亞公園","bus_group_id":204},{"id":"9541036143D6CCF1","lat":22.281144,"lng":114.190058,"name_en":"VICTORIA PARK","name_zh":"維多利亞公園","bus_group_id":204},{"id":"001214","lat":22.281286912091,"lng":114.19065162053,"name_en":"Queen's College, Causeway Road","name_zh":"皇仁書院, 高士威道","bus_group_id":205},{"id":"20008182","lat":22.28125,"lng":114.19066,"name_en":"Causeway Road, near Queen's College","name_zh":"高士威道, 近皇仁書院","bus_group_id":205},{"id":"001215","lat":22.280082042091,"lng":114.18887826053,"name_en":"Hong Kong Central Library, Causeway Road","name_zh":"香港中央圖書館, 高士威道","bus_group_id":206},{"id":"D8DFB3548B250AE5","lat":22.280194,"lng":114.189148,"name_en":"HONG KONG CENTRAL LIBRARY","name_zh":"中央圖書館","bus_group_id":206},{"id":"001216","lat":22.274447992091,"lng":114.23121621053,"name_en":"A Kung Ngam Road, Chai Wan Road","name_zh":"阿公岩道, 柴灣道","bus_group_id":207},{"id":"001233","lat":22.274719782091,"lng":114.23085406053,"name_en":"A Kung Ngam Road, Chai Wan Road","name_zh":"阿公岩道, 柴灣道","bus_group_id":207},{"id":"001217","lat":22.273682822091,"lng":114.23182613053,"name_en":"Lei Yue Mun Park, Chai Wan Road","name_zh":"鯉魚門公園, 柴灣道","bus_group_id":208},{"id":"D9C6E05CF96CEEAE","lat":22.273972,"lng":114.231542,"name_en":"LEI YUE MUN PARK","name_zh":"鯉魚門公園","bus_group_id":208},{"id":"001218","lat":22.271469842091,"lng":114.23323635053,"name_en":"Tai Tam Road, Chai Wan Road","name_zh":"大潭道, 柴灣道","bus_group_id":209},{"id":"AE917A6FCB7A4422","lat":22.271786,"lng":114.233202,"name_en":"TAI TAM ROAD","name_zh":"大潭道","bus_group_id":209},{"id":"EC157EA93B3DD279","lat":22.271611,"lng":114.233266,"name_en":"TAI TAM ROAD","name_zh":"大潭道","bus_group_id":209},{"id":"20012977","lat":22.27132,"lng":114.23332,"name_en":"Chai Wan Road, opposite Shau Kei Wan Government Secondary School","name_zh":"柴灣道, 筲箕灣官立中學對面","bus_group_id":209},{"id":"001219","lat":22.268521772091,"lng":114.23362526053,"name_en":"Eastern Hospital, Chai Wan Road","name_zh":"東區醫院, 柴灣道","bus_group_id":210},{"id":"41FA91EC4FFF5A19","lat":22.268293,"lng":114.233358,"name_en":"HING MAN ESTATE","name_zh":"興民邨","bus_group_id":210},{"id":"001220","lat":22.266776752091,"lng":114.23370630053,"name_en":"Koway Court, Chai Wan Road","name_zh":"高威閣, 柴灣道","bus_group_id":211},{"id":"2C86CB44C20CCC97","lat":22.266651,"lng":114.233785,"name_en":"KOWAY COURT","name_zh":"高威閣","bus_group_id":211},{"id":"001221","lat":22.264455262091,"lng":114.23464877053,"name_en":"Hong Man Street, Chai Wan Road","name_zh":"康民街, 柴灣道","bus_group_id":212},{"id":"001387","lat":22.264334082091,"lng":114.23446855053,"name_en":"Yu Hing House Hing Wah Estate, Chai Wan Road","name_zh":"興華邨裕興樓, 柴灣道","bus_group_id":212},{"id":"687325CD84BA96A0","lat":22.26451,"lng":114.234671,"name_en":"HONG MAN STREET","name_zh":"康民街","bus_group_id":212},{"id":"001222","lat":22.263309472091,"lng":114.23896966053,"name_en":"Yee Tai Street, Chai Wan Road","name_zh":"怡泰街, 柴灣道","bus_group_id":213},{"id":"6834AA5A14521A3D","lat":22.263309,"lng":114.23879,"name_en":"YEE TAI STREET","name_zh":"怡泰街","bus_group_id":213},{"id":"EFA71508B2EBD9B9","lat":22.263346,"lng":114.238949,"name_en":"YEE TAI STREET","name_zh":"怡泰街","bus_group_id":213},{"id":"001223","lat":22.263850992091,"lng":114.23989662053,"name_en":"Walton Estate, Chai Wan Road","name_zh":"宏德居, 柴灣道","bus_group_id":214},{"id":"20009407","lat":22.2639,"lng":114.24001,"name_en":"Chai Wan Road, outside Walton Estate","name_zh":"柴灣道, 宏德居外","bus_group_id":214},{"id":"001224","lat":22.265262802091,"lng":114.24180700053,"name_en":"Yue Wan Estate, Chai Wan Road","name_zh":"漁灣邨, 柴灣道","bus_group_id":215},{"id":"3D5712E812B2A644","lat":22.264966,"lng":114.241738,"name_en":"LOK HIN TERRACE","name_zh":"樂軒臺","bus_group_id":215},{"id":"99F26632A4856508","lat":22.265366,"lng":114.241832,"name_en":"YUE WAN ESTATE","name_zh":"漁灣邨","bus_group_id":215},{"id":"5E77ADDA52B97105","lat":22.265312,"lng":114.241787,"name_en":"YUE WAN ESTATE","name_zh":"漁灣邨","bus_group_id":215},{"id":"001225","lat":22.265964212091,"lng":114.24531836053,"name_en":"Sheung On Street, Chai Wan Road","name_zh":"常安街, 柴灣道","bus_group_id":216},{"id":"9D249890C4EB5901","lat":22.265969,"lng":114.245045,"name_en":"SHEUNG ON STREET","name_zh":"常安街","bus_group_id":216},{"id":"001226","lat":22.265804172091,"lng":114.24535768053,"name_en":"Fu Shing Court, Chai Wan Road","name_zh":"富城閣, 柴灣道","bus_group_id":217},{"id":"9D249890C4EB5901","lat":22.265969,"lng":114.245045,"name_en":"SHEUNG ON STREET","name_zh":"常安街","bus_group_id":217},{"id":"0F421E6B729C2D24","lat":22.266015,"lng":114.24523,"name_en":"SHEUNG ON STREET","name_zh":"常安街","bus_group_id":217},{"id":"E34948ABDF8285ED","lat":22.265767,"lng":114.24562,"name_en":"FU SHING COURT","name_zh":"富城閣","bus_group_id":217},{"id":"001227","lat":22.264883822091,"lng":114.24156861053,"name_en":"Lok Hin Terrace, Chai Wan Road","name_zh":"樂軒臺, 柴灣道","bus_group_id":218},{"id":"3D5712E812B2A644","lat":22.264966,"lng":114.241738,"name_en":"LOK HIN TERRACE","name_zh":"樂軒臺","bus_group_id":218},{"id":"001228","lat":22.263138192091,"lng":114.23878619053,"name_en":"Wan Tsui Shopping Centre, Chai Wan Road","name_zh":"環翠商場, 柴灣道","bus_group_id":219},{"id":"6834AA5A14521A3D","lat":22.263309,"lng":114.23879,"name_en":"YEE TAI STREET","name_zh":"怡泰街","bus_group_id":219},{"id":"20000256","lat":22.2633,"lng":114.23876,"name_en":"Chai Wan Road, outside Winner Centre","name_zh":"柴灣道, 永利中心外","bus_group_id":219},{"id":"3DEEC3D4DC381867","lat":22.263067,"lng":114.238776,"name_en":"WAN TSUI SHOPPING CENTRE","name_zh":"環翠商場","bus_group_id":219},{"id":"001229","lat":22.265027152091,"lng":114.23373522053,"name_en":"Star of the Sea Catholic Church, Chai Wan Road","name_zh":"天主教海星堂, 柴灣道","bus_group_id":220},{"id":"073E1DD8599E7315","lat":22.265149,"lng":114.233614,"name_en":"STAR OF THE SEA CATHOLIC CHURCH","name_zh":"天主教海星堂","bus_group_id":220},{"id":"001230","lat":22.267894132091,"lng":114.23341093053,"name_en":"Hing Man Estate, Chai Wan Road","name_zh":"興民邨, 柴灣道","bus_group_id":221},{"id":"20003450","lat":22.26747,"lng":114.23339,"name_en":"Chai Wan Road, Hing Man Estate","name_zh":"柴灣道, 興民邨","bus_group_id":221},{"id":"41FA91EC4FFF5A19","lat":22.268293,"lng":114.233358,"name_en":"HING MAN ESTATE","name_zh":"興民邨","bus_group_id":221},{"id":"001231","lat":22.269331482091,"lng":114.23354147053,"name_en":"Shan Tsui Court, Chai Wan Road","name_zh":"山翠苑, 柴灣道","bus_group_id":222},{"id":"0DCC18C3A018C1DA","lat":22.269285,"lng":114.233546,"name_en":"SHAN TSUI COURT","name_zh":"山翠苑","bus_group_id":222},{"id":"20012983","lat":22.26937,"lng":114.23352,"name_en":"Chai Wan Road, outside Shan Tsui Court","name_zh":"柴灣道, 山翠苑外","bus_group_id":222},{"id":"20016085","lat":22.26938,"lng":114.23353,"name_en":"Chai Wan Road ( near Shan Tsui Court)","name_zh":"柴灣道近山翠苑","bus_group_id":222},{"id":"001232","lat":22.272471812091,"lng":114.23263770053,"name_en":"Shau Kei Wan East Government Secondary School, Chai Wan Road","name_zh":"筲箕灣東官立中學, 柴灣道","bus_group_id":223},{"id":"F754AED08F0B6B97","lat":22.272062,"lng":114.232702,"name_en":"SHAU KEI WAN EAST GOVERNMENT SECONDARY SCHOOL","name_zh":"筲箕灣東官立中學","bus_group_id":223},{"id":"001233","lat":22.274719782091,"lng":114.23085406053,"name_en":"A Kung Ngam Road, Chai Wan Road","name_zh":"阿公岩道, 柴灣道","bus_group_id":224},{"id":"2F1AD255E336F1A8","lat":22.274823,"lng":114.230902,"name_en":"A KUNG NGAM ROAD","name_zh":"阿公岩道","bus_group_id":224},{"id":"4073C7B5B3D72456","lat":22.274823,"lng":114.230902,"name_en":"A KUNG NGAM ROAD","name_zh":"阿公岩道","bus_group_id":224},{"id":"001234","lat":22.286998602091,"lng":114.19907885053,"name_en":"CCC Kwei Wah Shan College, Cloud View Road","name_zh":"桂華山中學, 雲景道","bus_group_id":225},{"id":"20009182","lat":22.28702,"lng":114.199,"name_en":"Cloud View Road, outside Hilltop Mansion","name_zh":"雲景道,峰景大廈外","bus_group_id":225},{"id":"5DB2359F5F8535E9","lat":22.287098,"lng":114.199066,"name_en":"SUMMIT COURT","name_zh":"雲峯大廈","bus_group_id":225},{"id":"001235","lat":22.287249052091,"lng":114.19740720053,"name_en":"Flora Garden, Cloud View Road","name_zh":"富麗園, 雲景道","bus_group_id":226},{"id":"001241","lat":22.287080422091,"lng":114.19704530053,"name_en":"Hanking Court, Cloud View Road","name_zh":"恆景園, 雲景道","bus_group_id":226},{"id":"001236","lat":22.286326312091,"lng":114.19671765053,"name_en":"Maiden Court, Cloud View Road","name_zh":"萬德閣, 雲景道","bus_group_id":227},{"id":"20003543","lat":22.28647,"lng":114.19653,"name_en":"No. 39 Cloud View Road","name_zh":"雲景道39號","bus_group_id":227},{"id":"001237","lat":22.284662802091,"lng":114.19566175053,"name_en":"Evelyn Towers, Cloud View Road","name_zh":"雲景台, 雲景道","bus_group_id":228},{"id":"F7756ADD267DFE71","lat":22.284742,"lng":114.195932,"name_en":"EVELYN TOWERS","name_zh":"雲景台","bus_group_id":228},{"id":"001238","lat":22.284592382091,"lng":114.19476076053,"name_en":"Concordia Lutheran School - North Point, Cloud View Road","name_zh":"北角協同中學, 雲景道","bus_group_id":229},{"id":"001239","lat":22.284614152091,"lng":114.19489288053,"name_en":"Cloud View Road Service Reservoir Playground, Cloud View Road","name_zh":"雲景道配水庫遊樂場, 雲景道","bus_group_id":229},{"id":"001239","lat":22.284614152091,"lng":114.19489288053,"name_en":"Cloud View Road Service Reservoir Playground, Cloud View Road","name_zh":"雲景道配水庫遊樂場, 雲景道","bus_group_id":230},{"id":"001240","lat":22.285153832091,"lng":114.19621281053,"name_en":"Seaview Garden, Cloud View Road","name_zh":"海景台, 雲景道","bus_group_id":231},{"id":"20009184","lat":22.28492,"lng":114.1961,"name_en":"Cloud View Road, outside Evelyn Towers","name_zh":"雲景道, 雲景台外","bus_group_id":231},{"id":"001241","lat":22.287080422091,"lng":114.19704530053,"name_en":"Hanking Court, Cloud View Road","name_zh":"恆景園, 雲景道","bus_group_id":232},{"id":"D7369E9D4404292E","lat":22.287086,"lng":114.196889,"name_en":"HANKING COURT","name_zh":"恒景園","bus_group_id":232},{"id":"001242","lat":22.287161292091,"lng":114.19894215053,"name_en":"Summit Court, Cloud View Road","name_zh":"雲峰大廈, 雲景道","bus_group_id":233},{"id":"20009182","lat":22.28702,"lng":114.199,"name_en":"Cloud View Road, outside Hilltop Mansion","name_zh":"雲景道,峰景大廈外","bus_group_id":233},{"id":"001243","lat":22.289384232091,"lng":114.19363237053,"name_en":"Electric Road Market, Electric Road","name_zh":"電氣道街市, 電氣道","bus_group_id":234},{"id":"20000312","lat":22.28949,"lng":114.19372,"name_en":"Electric Road, near Market Complex","name_zh":"電氣道, 近市政大廈","bus_group_id":234},{"id":"5C55C67ACA491F35","lat":22.289552,"lng":114.193757,"name_en":"ELECTRIC ROAD MARKET","name_zh":"電氣道街市","bus_group_id":234},{"id":"001244","lat":22.290834522091,"lng":114.19491332053,"name_en":"City Garden, Electric Road","name_zh":"城市花園, 電氣道","bus_group_id":235},{"id":"DA8EA09C3AAD39C9","lat":22.290645,"lng":114.194737,"name_en":"CITY GARDEN","name_zh":"城市花園","bus_group_id":235},{"id":"001245","lat":22.288371962091,"lng":114.19529471053,"name_en":"St. Peter's Church, Fortress Hill Road","name_zh":"聖彼得堂, 炮台山道","bus_group_id":236},{"id":"001246","lat":22.287129632091,"lng":114.19536100053,"name_en":"Fu Kar Court, Fortress Hill Road","name_zh":"富嘉閣, 炮台山道","bus_group_id":237},{"id":"001328","lat":22.287244652091,"lng":114.19580645053,"name_en":"Hacienda, Tin Hau Temple Road","name_zh":"衡峰閣, 天后廟道","bus_group_id":237},{"id":"001247","lat":22.287441792091,"lng":114.19543648053,"name_en":"Clementi Secondary School, Fortress Hill Road","name_zh":"金文泰中學, 炮台山道","bus_group_id":237},{"id":"001247","lat":22.287441792091,"lng":114.19543648053,"name_en":"Clementi Secondary School, Fortress Hill Road","name_zh":"金文泰中學, 炮台山道","bus_group_id":238},{"id":"001328","lat":22.287244652091,"lng":114.19580645053,"name_en":"Hacienda, Tin Hau Temple Road","name_zh":"衡峰閣, 天后廟道","bus_group_id":238},{"id":"001248","lat":22.285721352091,"lng":114.19103465053,"name_en":"Gordon Road","name_zh":"歌頓道","bus_group_id":239},{"id":"4E7771F77C035AE4","lat":22.285845,"lng":114.19113,"name_en":"GORDON ROAD","name_zh":"歌頓道","bus_group_id":239},{"id":"001249","lat":22.293287872091,"lng":114.20149753053,"name_en":"North Point Ferry Pier","name_zh":"北角碼頭","bus_group_id":240},{"id":"20016103","lat":22.29332,"lng":114.20194,"name_en":"North Point Ferry Pier Public Transport Interchange","name_zh":"北角渡輪碼頭公共運輸交匯處","bus_group_id":240},{"id":"001250","lat":22.283570742091,"lng":114.19887561053,"name_en":"Braemar Hill","name_zh":"寶馬山","bus_group_id":241},{"id":"712502C1013BBC1C","lat":22.283365,"lng":114.198923,"name_en":"BRAEMAR HILL BUS TERMINUS","name_zh":"寶馬山總站","bus_group_id":241},{"id":"001251","lat":22.283573922091,"lng":114.19109346053,"name_en":"Hing Fat Street","name_zh":"興發街","bus_group_id":242},{"id":"42E86F97FAC8F719","lat":22.283417,"lng":114.191218,"name_en":"HING FAT STREET","name_zh":"興發街","bus_group_id":242},{"id":"001252","lat":22.290802852091,"lng":114.21012317053,"name_en":"Quarry Bay (Hoi Chak Street)","name_zh":"鰂魚涌 (海澤街)","bus_group_id":243},{"id":"001253","lat":22.264902502091,"lng":114.23450655053,"name_en":"Hong Man Industrial Centre, Hong Man Street","name_zh":"康民工業中心, 康民街","bus_group_id":244},{"id":"687325CD84BA96A0","lat":22.26451,"lng":114.234671,"name_en":"HONG MAN STREET","name_zh":"康民街","bus_group_id":244},{"id":"001254","lat":22.291788112091,"lng":114.19724449053,"name_en":"North Point Road, Java Road","name_zh":"北角道, 渣華道","bus_group_id":245},{"id":"C08FEC89DEBCB67B","lat":22.291667,"lng":114.196977,"name_en":"NORTH POINT ROAD","name_zh":"北角道","bus_group_id":245},{"id":"001255","lat":22.292203912091,"lng":114.19948901053,"name_en":"Java Road Complex, Java Road","name_zh":"渣華道市政大廈, 渣華道","bus_group_id":246},{"id":"3E1D9EABF11829F2","lat":22.292146,"lng":114.199289,"name_en":"JAVA ROAD","name_zh":"渣華道","bus_group_id":246},{"id":"001256","lat":22.292465872091,"lng":114.20073702053,"name_en":"Kam Hong Street, Java Road","name_zh":"琴行街, 渣華道","bus_group_id":247},{"id":"064C195509AC01EE","lat":22.292466,"lng":114.200724,"name_en":"KAM HONG STREET","name_zh":"琴行街","bus_group_id":247},{"id":"97610D724858CEC0","lat":22.292532,"lng":114.200708,"name_en":"KAM HONG STREET","name_zh":"琴行街","bus_group_id":247},{"id":"001257","lat":22.292829302091,"lng":114.20250688053,"name_en":"Tin Chiu Street, Java Road","name_zh":"電照街, 渣華道","bus_group_id":248},{"id":"BB930AAAB15181A1","lat":22.292559,"lng":114.202798,"name_en":"TIN CHIU STREET","name_zh":"電照街","bus_group_id":248},{"id":"001258","lat":22.292126752091,"lng":114.20781923053,"name_en":"North Point Fire Station, Java Road","name_zh":"北角消防局, 渣華道","bus_group_id":249},{"id":"40CB528985641937","lat":22.291725,"lng":114.207756,"name_en":"MODEL HOUSING ESTATE","name_zh":"模範邨","bus_group_id":249},{"id":"63C467254154B6B5","lat":22.292236,"lng":114.20774,"name_en":"NORTH POINT FIRE STATION","name_zh":"北角消防局","bus_group_id":249},{"id":"43EA87C958C75F33","lat":22.292206,"lng":114.207824,"name_en":"NORTH POINT FIRE STATION","name_zh":"北角消防局","bus_group_id":249},{"id":"001259","lat":22.283615512091,"lng":114.19246041053,"name_en":"Ngan Mok Street, King's Road","name_zh":"銀幕街, 英皇道","bus_group_id":250},{"id":"20000268","lat":22.28348,"lng":114.19224,"name_en":"No.7-9 Ngan Mok Street","name_zh":"銀幕街7-9號","bus_group_id":250},{"id":"834CC2324AAFB567","lat":22.283692,"lng":114.192457,"name_en":"NGAN MOK STREET","name_zh":"銀幕街","bus_group_id":250},{"id":"001260","lat":22.287742812091,"lng":114.19296558053,"name_en":"7 Seas Shopping Centre, King's Road","name_zh":"七海商業中心, 英皇道","bus_group_id":251},{"id":"5256A9BB88266375","lat":22.287726,"lng":114.192958,"name_en":"7 SEAS SHOPPING CENTRE","name_zh":"七海商業中心","bus_group_id":251},{"id":"001261","lat":22.290056622091,"lng":114.19505769053,"name_en":"Tin Chong Street, King's Road","name_zh":"電廠街, 英皇道","bus_group_id":252},{"id":"20000318","lat":22.28966,"lng":114.19493,"name_en":"King's Road, near North Point Centre","name_zh":"英皇道, 近北角中心大廈","bus_group_id":252},{"id":"001262","lat":22.290808072091,"lng":114.19810570053,"name_en":"Tong Shui Road, King's Road","name_zh":"糖水道, 英皇道","bus_group_id":253},{"id":"DDAA6CA9D68D3BA5","lat":22.290644,"lng":114.198396,"name_en":"MARY COURT","name_zh":"美麗閣","bus_group_id":253},{"id":"001263","lat":22.291180532091,"lng":114.19990139053,"name_en":"Sunbeam Theatre, King's Road","name_zh":"新光戲院, 英皇道","bus_group_id":254},{"id":"38D2BF58A38ADCA0","lat":22.290899,"lng":114.199574,"name_en":"METROPOLE BUILDING","name_zh":"新都城大廈","bus_group_id":254},{"id":"001264","lat":22.291703622091,"lng":114.20248986053,"name_en":"Island Place, King's Road","name_zh":"港運城, 英皇道","bus_group_id":255},{"id":"20016102","lat":22.29145,"lng":114.20231,"name_en":"King's Road, near Island Place","name_zh":"英皇道,近港運城","bus_group_id":255},{"id":"001265","lat":22.292089592091,"lng":114.20652344053,"name_en":"Healthy Village, King's Road","name_zh":"健康村, 英皇道","bus_group_id":256},{"id":"3328A22FC67A46F9","lat":22.291872,"lng":114.206378,"name_en":"HEALTHY VILLAGE","name_zh":"健康村","bus_group_id":256},{"id":"20013709","lat":22.29242,"lng":114.20673,"name_en":"JAVA ROAD, near Kodak House (House I & House II)","name_zh":"渣華道,近柯達大廈（一期及二期）","bus_group_id":256},{"id":"001266","lat":22.291271952091,"lng":114.20871956053,"name_en":"Model Housing Estate, King's Road","name_zh":"模範邨, 英皇道","bus_group_id":257},{"id":"C8946B416C2ED8EA","lat":22.291096,"lng":114.208934,"name_en":"MODEL HOUSING ESTATE","name_zh":"模範邨","bus_group_id":257},{"id":"001267","lat":22.288825782091,"lng":114.20986716053,"name_en":"North Point Government Primary School, King's Road","name_zh":"北角官立小學, 英皇道","bus_group_id":258},{"id":"8A573E6526B8EF88","lat":22.289104,"lng":114.209503,"name_en":"NORTH POINT GOVT PRIMARY SCHOOL","name_zh":"北角官立小學","bus_group_id":258},{"id":"85CACCFD0C731C5B","lat":22.288917,"lng":114.209889,"name_en":"NORTH POINT GOVERNMENT PRIMARY SCHOOL","name_zh":"北角官立小學","bus_group_id":258},{"id":"20005085","lat":22.28873,"lng":114.20993,"name_en":"943-947 King's Road","name_zh":"英皇道943-947號","bus_group_id":258},{"id":"001268","lat":22.285544382091,"lng":114.21133814053,"name_en":"Sunway Gardens, King's Road","name_zh":"新威園, 英皇道","bus_group_id":259},{"id":"628DF6A22E9172F8","lat":22.285618,"lng":114.21102,"name_en":"SUNWAY GARDENS","name_zh":"新威園","bus_group_id":259},{"id":"20013713","lat":22.28577,"lng":114.2113,"name_en":"KING'S ROAD, near Sunway Gardens Block B","name_zh":"英皇道,近新威園Ｂ座","bus_group_id":259},{"id":"001269","lat":22.284763112091,"lng":114.21319278053,"name_en":"Westlands Gardens, King's Road","name_zh":"惠安苑, 英皇道","bus_group_id":260},{"id":"D429372493B73002","lat":22.284736,"lng":114.213228,"name_en":"WESTLANDS GARDENS","name_zh":"惠安苑","bus_group_id":260},{"id":"001270","lat":22.285287892091,"lng":114.21758355053,"name_en":"Cityplaza, King's Road","name_zh":"太古城中心, 英皇道","bus_group_id":261},{"id":"BB8D798D19066A35","lat":22.285357,"lng":114.21749,"name_en":"CITYPLAZA","name_zh":"太古城中心","bus_group_id":261},{"id":"001271","lat":22.284594642091,"lng":114.21416959053,"name_en":"Bo Fung Gardens, King's Road","name_zh":"寶峰園, 英皇道","bus_group_id":262},{"id":"20013772","lat":22.28454,"lng":114.21369,"name_en":"KING'S ROAD, near GREIG ROAD SITTING-OUT AREA","name_zh":"英皇道,近基利路休憩處","bus_group_id":262},{"id":"3D72573A84FB828E","lat":22.284791,"lng":114.214125,"name_en":"SHIPYARD LANE","name_zh":"船塢里","bus_group_id":262},{"id":"001272","lat":22.284722942091,"lng":114.21210328053,"name_en":"Quarry Bay Street, King's Road","name_zh":"鰂魚涌街, 英皇道","bus_group_id":263},{"id":"20018746","lat":22.28465,"lng":114.21228,"name_en":"KING'S ROAD, near Montane Mansion","name_zh":"英皇道,近海山樓","bus_group_id":263},{"id":"001273","lat":22.286667942091,"lng":114.21039739053,"name_en":"Taikoo Place, King's Road","name_zh":"太古坊, 英皇道","bus_group_id":264},{"id":"0A9E349E178D498C","lat":22.286665,"lng":114.210464,"name_en":"TAIKOO PLACE","name_zh":"太古坊","bus_group_id":264},{"id":"20005090","lat":22.28676,"lng":114.21034,"name_en":"King's Road, opposite Cambridge House","name_zh":"英皇道, 康橋大廈對面","bus_group_id":264},{"id":"001274","lat":22.289926312091,"lng":114.20930325053,"name_en":"Mansion Street, King's Road","name_zh":"民新街, 英皇道","bus_group_id":265},{"id":"71827391BC3C3C7A","lat":22.289658,"lng":114.209342,"name_en":"MANSION STREET","name_zh":"民新街","bus_group_id":265},{"id":"001275","lat":22.291544482091,"lng":114.20766679053,"name_en":"Model Housing Estate, King's Road","name_zh":"模範邨, 英皇道","bus_group_id":266},{"id":"20004116","lat":22.29138,"lng":114.20809,"name_en":"Model Housing Estate, King's Road","name_zh":"英皇道, 模範邨","bus_group_id":266},{"id":"40CB528985641937","lat":22.291725,"lng":114.207756,"name_en":"MODEL HOUSING ESTATE","name_zh":"模範邨","bus_group_id":266},{"id":"001276","lat":22.291912702091,"lng":114.20634072053,"name_en":"Healthy Village, King's Road","name_zh":"健康村, 英皇道","bus_group_id":267},{"id":"3328A22FC67A46F9","lat":22.291872,"lng":114.206378,"name_en":"HEALTHY VILLAGE","name_zh":"健康村","bus_group_id":267},{"id":"57FA25A4EF6DC06B","lat":22.292185,"lng":114.206168,"name_en":"HEALTHY VILLAGE","name_zh":"健康村","bus_group_id":267},{"id":"B6E124DFD59022EF","lat":22.292173,"lng":114.206222,"name_en":"HEALTHY VILLAGE","name_zh":"健康村","bus_group_id":267},{"id":"001277","lat":22.291810122091,"lng":114.20389006053,"name_en":"Healthy Gardens, King's Road","name_zh":"健威花園, 英皇道","bus_group_id":268},{"id":"616738F21326814A","lat":22.291719,"lng":114.203666,"name_en":"HEALTHY GARDENS","name_zh":"健威花園","bus_group_id":268},{"id":"001278","lat":22.291505782091,"lng":114.20241339053,"name_en":"Island Place, King's Road","name_zh":"港運城, 英皇道","bus_group_id":269},{"id":"7F70F27177F91809","lat":22.291395,"lng":114.202081,"name_en":"ISLAND PLACE","name_zh":"港運城","bus_group_id":269},{"id":"33D2B3AB9D2CCDF3","lat":22.291733,"lng":114.202568,"name_en":"ISLAND PLACE","name_zh":"港運城","bus_group_id":269},{"id":"2969EE1DAEAD252A","lat":22.291737,"lng":114.2026,"name_en":"ISLAND PLACE","name_zh":"港運城","bus_group_id":269},{"id":"001279","lat":22.291204122091,"lng":114.20095851053,"name_en":"Kam Hong Street, King's Road","name_zh":"琴行街, 英皇道","bus_group_id":270},{"id":"20000315","lat":22.29122,"lng":114.20115,"name_en":"King's Road, near North Point MTR Station","name_zh":"英皇道, 近港鐵北角站","bus_group_id":270},{"id":"001280","lat":22.290876932091,"lng":114.19937984053,"name_en":"Metropole Building, King's Road","name_zh":"新都城大廈, 英皇道","bus_group_id":271},{"id":"7FBF4EAFB18821CA","lat":22.290887,"lng":114.199507,"name_en":"METROPOLE BUILDING","name_zh":"新都城大廈","bus_group_id":271},{"id":"001281","lat":22.290567652091,"lng":114.19788360053,"name_en":"Mary Court, King's Road","name_zh":"美麗閣, 英皇道","bus_group_id":272},{"id":"31748E8EF7377312","lat":22.29063,"lng":114.198308,"name_en":"MARY COURT","name_zh":"美麗閣","bus_group_id":272},{"id":"98AF62607465CE59","lat":22.290828,"lng":114.198066,"name_en":"TONG SHUI ROAD","name_zh":"糖水道","bus_group_id":272},{"id":"001282","lat":22.289909792091,"lng":114.19515688053,"name_en":"New Trend Plaza, King's Road","name_zh":"新時代廣場, 英皇道","bus_group_id":273},{"id":"20000318","lat":22.28966,"lng":114.19493,"name_en":"King's Road, near North Point Centre","name_zh":"英皇道, 近北角中心大廈","bus_group_id":273},{"id":"4AEB8A22E18AB111","lat":22.290036,"lng":114.19507,"name_en":"TIN CHONG STREET","name_zh":"電廠街","bus_group_id":273},{"id":"001283","lat":22.288146742091,"lng":114.19355472053,"name_en":"Fortress Hill Station, King's Road","name_zh":"炮台山站, 英皇道","bus_group_id":274},{"id":"FOH","lat":22.287909487978517,"lng":114.19359398618265,"name_en":"Fortress Hill","name_zh":"炮台山","bus_group_id":274},{"id":"BB9D2A6E7E713664","lat":22.288517,"lng":114.193775,"name_en":"FORTRESS HILL STATION","name_zh":"炮台山站","bus_group_id":274},{"id":"001285","lat":22.286174722091,"lng":114.19303544053,"name_en":"Tsing Fung Street flyover, King's Road","name_zh":"清風街天橋, 英皇道","bus_group_id":275},{"id":"E611BF0137D10098","lat":22.286325,"lng":114.193075,"name_en":"TSING FUNG STREET FLYOVER","name_zh":"清風街天橋","bus_group_id":275},{"id":"5B0682EF0C8397A2","lat":22.286387,"lng":114.193069,"name_en":"TSING FUNG STREET FLYOVER","name_zh":"清風街天橋","bus_group_id":275},{"id":"001286","lat":22.284713662091,"lng":114.19291666053,"name_en":"Tsing Fung Street, King's Road","name_zh":"清風街, 英皇道","bus_group_id":276},{"id":"A51DD43F6382CCDE","lat":22.284745,"lng":114.193009,"name_en":"TSING FUNG STREET","name_zh":"清風街","bus_group_id":276},{"id":"65DFA1F84CD5A03B","lat":22.284932,"lng":114.19305,"name_en":"TSING FUNG STREET","name_zh":"清風街","bus_group_id":276},{"id":"001287","lat":22.284744092091,"lng":114.21617625053,"name_en":"Kornhill Plaza, Kornhill Road","name_zh":"康怡廣場, 康山道","bus_group_id":277},{"id":"TAK","lat":22.284654483028124,"lng":114.21648431471385,"name_en":"Tai Koo","name_zh":"太古","bus_group_id":277},{"id":"57C02E8F67CF625E","lat":22.284785,"lng":114.216203,"name_en":"KORNHILL PLAZA","name_zh":"康怡廣場","bus_group_id":277},{"id":"001288","lat":22.284499762091,"lng":114.21671745053,"name_en":"Kornhill Plaza, Kornhill Road","name_zh":"康怡廣場, 康山道","bus_group_id":278},{"id":"TAK","lat":22.284654483028124,"lng":114.21648431471385,"name_en":"Tai Koo","name_zh":"太古","bus_group_id":278},{"id":"001289","lat":22.278859622091,"lng":114.19353863053,"name_en":"Tak Chuen Lau Lai Tak Tsuen, Lai Tak Tsuen Road","name_zh":"勵德邨德全樓, 勵德邨道","bus_group_id":279},{"id":"7C88601B99189BD4","lat":22.278793,"lng":114.193486,"name_en":"TAK CHUEN LAU LAI TAK TSUEN","name_zh":"勵德邨德全樓","bus_group_id":279},{"id":"001290","lat":22.279175742091,"lng":114.19357793053,"name_en":"Lai Kit Lau Lai Tak Tsuen, Lai Tak Tsuen Road","name_zh":"勵德邨勵潔樓, 勵德邨道","bus_group_id":279},{"id":"001290","lat":22.279175742091,"lng":114.19357793053,"name_en":"Lai Kit Lau Lai Tak Tsuen, Lai Tak Tsuen Road","name_zh":"勵德邨勵潔樓, 勵德邨道","bus_group_id":280},{"id":"7C88601B99189BD4","lat":22.278793,"lng":114.193486,"name_en":"TAK CHUEN LAU LAI TAK TSUEN","name_zh":"勵德邨德全樓","bus_group_id":280},{"id":"001291","lat":22.278092282091,"lng":114.19423311053,"name_en":"Tsuen Wing Lau Lai Tak Tsuen, Lai Tak Tsuen Road","name_zh":"勵德邨邨榮樓, 勵德邨道","bus_group_id":281},{"id":"8F3036848FC1BBEA","lat":22.277758,"lng":114.194491,"name_en":"TSUEN WING LAU LAI TAK TSUEN","name_zh":"勵德邨邨榮樓","bus_group_id":281},{"id":"20000124","lat":22.27854,"lng":114.19423,"name_en":"Lai Tak Tsuen","name_zh":"勵德邨","bus_group_id":281},{"id":"001292","lat":22.265718062091,"lng":114.23593399053,"name_en":"Lee Chung Street","name_zh":"利眾街","bus_group_id":282},{"id":"001293","lat":22.284069312091,"lng":114.22354484053,"name_en":"Lei King Wan, Lei King Road","name_zh":"鯉景灣, 鯉景道","bus_group_id":283},{"id":"20016058","lat":22.28412,"lng":114.22352,"name_en":"Lei King Road","name_zh":"鯉景道","bus_group_id":283},{"id":"001294","lat":22.264789772091,"lng":114.23706735053,"name_en":"Chai Wan Station","name_zh":"柴灣站","bus_group_id":284},{"id":"CHW","lat":22.26458205231718,"lng":114.23710549505256,"name_en":"Chai Wan","name_zh":"柴灣","bus_group_id":284},{"id":"20000255","lat":22.26497,"lng":114.23704,"name_en":"Chai Wan Station Public Transport Interchange","name_zh":"柴灣站公共運輸交匯處","bus_group_id":284},{"id":"001295","lat":22.289538932091,"lng":114.20767182053,"name_en":"Braemar Terrace, Pak Fuk Road","name_zh":"寶馬臺, 百福道","bus_group_id":285},{"id":"001296","lat":22.282504342091,"lng":114.22170603053,"name_en":"Tai On Building, Shau Kei Wan Road","name_zh":"太安樓, 筲箕灣道","bus_group_id":286},{"id":"20013770","lat":22.28231,"lng":114.22159,"name_en":"SHAU KEI WAN ROAD, near Yip Ning Building","name_zh":"筲箕灣道,近業寧大廈","bus_group_id":286},{"id":"53AC7BF85DA06160","lat":22.282733,"lng":114.221557,"name_en":"TAI ON BUILDING","name_zh":"太安樓","bus_group_id":286},{"id":"001297","lat":22.280776032091,"lng":114.22363882053,"name_en":"Hoi An Street, Shau Kei Wan Road","name_zh":"海晏街, 筲箕灣道","bus_group_id":287},{"id":"20016094","lat":22.28095,"lng":114.22333,"name_en":"Shau Kei Wan Road (near i·UniQ Grand)","name_zh":"筲箕灣道近譽·東","bus_group_id":287},{"id":"001298","lat":22.280349712091,"lng":114.22504094053,"name_en":"Aldrich Bay Road, Shau Kei Wan Road","name_zh":"愛秩序灣道, 筲箕灣道","bus_group_id":288},{"id":"20000110","lat":22.28023,"lng":114.22491,"name_en":"No.250 Shau Kei Wan Road","name_zh":"筲箕灣道250號","bus_group_id":288},{"id":"001299","lat":22.277849882091,"lng":114.22690650053,"name_en":"Nam On Lane, Shau Kei Wan Road","name_zh":"南安里, 筲箕灣道","bus_group_id":289},{"id":"20016038","lat":22.27779,"lng":114.22676,"name_en":"No. 374 Shau Kei Wan Road","name_zh":"筲箕灣道374號","bus_group_id":289},{"id":"0DD75DC664712A9B","lat":22.277896,"lng":114.226911,"name_en":"NAM ON LANE","name_zh":"南安里","bus_group_id":289},{"id":"249030228FF24B3F","lat":22.27787,"lng":114.226934,"name_en":"NAM ON LANE","name_zh":"南安里","bus_group_id":289},{"id":"001300","lat":22.277420312091,"lng":114.22717089053,"name_en":"Nam On Lane, Shau Kei Wan Road","name_zh":"南安里, 筲箕灣道","bus_group_id":290},{"id":"20000119","lat":22.27751,"lng":114.2273,"name_en":"No.345 Shau Kei Wan Road","name_zh":"筲箕灣道345號","bus_group_id":290},{"id":"001301","lat":22.278724872091,"lng":114.22622512053,"name_en":"Sun Sing Street, Shau Kei Wan Road","name_zh":"新成街, 筲箕灣道","bus_group_id":291},{"id":"20000108","lat":22.27879,"lng":114.22616,"name_en":"No.326 Shau Kei Wan Road","name_zh":"筲箕灣道326號","bus_group_id":291},{"id":"001380","lat":22.278882572091,"lng":114.22627158053,"name_en":"Nam Hong Street, Shau Kei Wan Road","name_zh":"南康街, 筲箕灣道","bus_group_id":291},{"id":"20000107","lat":22.27833,"lng":114.22645,"name_en":"No.362 Shau Kei Wan Road","name_zh":"筲箕灣道362號","bus_group_id":291},{"id":"001302","lat":22.280716692091,"lng":114.22345551053,"name_en":"Hoi An Street, Shau Kei Wan Road","name_zh":"海晏街, 筲箕灣道","bus_group_id":292},{"id":"20016094","lat":22.28095,"lng":114.22333,"name_en":"Shau Kei Wan Road (near i·UniQ Grand)","name_zh":"筲箕灣道近譽·東","bus_group_id":292},{"id":"20013745","lat":22.28085,"lng":114.22351,"name_en":"SHAU KEI WAN ROAD, near Island Residence","name_zh":"筲箕灣道,近Island Residence","bus_group_id":292},{"id":"20013768","lat":22.28068,"lng":114.2235,"name_en":"SHAU KEI WAN ROAD, near Ellen Building","name_zh":"筲箕灣道,近延齡大廈","bus_group_id":292},{"id":"001303","lat":22.281794772091,"lng":114.22202073053,"name_en":"Sai Wan Ho Civic Centre, Shau Kei Wan Road","name_zh":"西灣河文娛中心, 筲箕灣道","bus_group_id":293},{"id":"20003553","lat":22.28182,"lng":114.22172,"name_en":"No. 8 Shing On Street","name_zh":"成安街8號","bus_group_id":293},{"id":"SWH","lat":22.28217869851327,"lng":114.22182048435263,"name_en":"Sai Wan Ho","name_zh":"西灣河","bus_group_id":293},{"id":"001304","lat":22.283579282091,"lng":114.22061919053,"name_en":"Tai Cheong Street, Shau Kei Wan Road","name_zh":"太祥街, 筲箕灣道","bus_group_id":294},{"id":"D0BA1477EAFC2C2B","lat":22.283234,"lng":114.220888,"name_en":"TAI FOO STREET","name_zh":"太富街","bus_group_id":294},{"id":"20016092","lat":22.28377,"lng":114.22076,"name_en":"Shau Kei Wan Road (near Tai Chong Street)","name_zh":"筲箕灣道近太祥街 ","bus_group_id":294},{"id":"001305","lat":22.266956982091,"lng":114.24386929053,"name_en":"Kailey Industrial Centre, Sheung On Street","name_zh":"啟力工業中心, 常安街","bus_group_id":295},{"id":"20007658","lat":22.26724,"lng":114.24351,"name_en":"Sheung On Street, near Chai Wan Fire Station","name_zh":"常安街, 近柴灣消防局","bus_group_id":295},{"id":"001306","lat":22.275253582091,"lng":114.24121292053,"name_en":"Heng Fa Chuen","name_zh":"杏花邨","bus_group_id":296},{"id":"20011485","lat":22.2753,"lng":114.2412,"name_en":"Heng Fa Chuen Public Transport Interchang","name_zh":"杏花邨公共運輸交匯處","bus_group_id":296},{"id":"001307","lat":22.277517942091,"lng":114.23951676053,"name_en":"Paradise Mall (West), Shing Tai Road","name_zh":"杏花新城 (西翼), 盛泰道","bus_group_id":297},{"id":"69EED8C6F125D0F0","lat":22.277357,"lng":114.239605,"name_en":"PARADISE MALL (WEST)","name_zh":"杏花新城(西翼)","bus_group_id":297},{"id":"001308","lat":22.270807152091,"lng":114.24075282053,"name_en":"Citybus Chai Wan Depot, Shing Tai Road","name_zh":"城巴柴灣車廠, 盛泰道","bus_group_id":298},{"id":"EE96AFEA1038F230","lat":22.271004,"lng":114.240858,"name_en":"CITYBUS DEPOT","name_zh":"城巴車廠","bus_group_id":298},{"id":"DA3EA19D6FC4D037","lat":22.271004,"lng":114.240858,"name_en":"CITYBUS DEPOT","name_zh":"城巴車廠","bus_group_id":298},{"id":"001309","lat":22.270467832091,"lng":114.23961196053,"name_en":"HKIVE (Chai Wan), Shun Tai Road","name_zh":"香港專業教育學院 (柴灣分校), 順泰道","bus_group_id":299},{"id":"BEB6AA0DBF68ECDB","lat":22.270353,"lng":114.239877,"name_en":"H.K. INSTITUTE OF VOCATIONAL EDUCATION","name_zh":"香港專業教育學院","bus_group_id":299},{"id":"001310","lat":22.291615512091,"lng":114.20012532053,"name_en":"Sunbeam Theatre, Shu Kuk Street","name_zh":"新光戲院, 書局街","bus_group_id":300},{"id":"A92AC5D798836D40","lat":22.291228,"lng":114.199938,"name_en":"SUN BEAM THEATRE","name_zh":"新光戲院","bus_group_id":300},{"id":"001311","lat":22.262616282091,"lng":114.25113785053,"name_en":"Fullview Garden, Siu Sai Wan Road","name_zh":"富景花園, 小西灣道","bus_group_id":301},{"id":"001312","lat":22.264667222091,"lng":114.24796685053,"name_en":"Hiu Tsui Street, Siu Sai Wan Road","name_zh":"曉翠街, 小西灣道","bus_group_id":302},{"id":"DFC05AAD7C3913C5","lat":22.264591,"lng":114.247896,"name_en":"HIU TSUI STREET","name_zh":"曉翠街","bus_group_id":302},{"id":"981A7F2220E8B3CA","lat":22.264888,"lng":114.24801,"name_en":"HARMONY GARDEN","name_zh":"富欣花園","bus_group_id":302},{"id":"3B39AD1240EB26A7","lat":22.264812,"lng":114.248089,"name_en":"HARMONY GARDEN","name_zh":"富欣花園","bus_group_id":302},{"id":"001313","lat":22.283340892091,"lng":114.22177946053,"name_en":"Tai Hong House, Tai Hong Street","name_zh":"太康樓, 太康街","bus_group_id":303},{"id":"1A03767DB7C1824D","lat":22.283115,"lng":114.221408,"name_en":"TAI HONG HOUSE","name_zh":"太康樓","bus_group_id":303},{"id":"001315","lat":22.283046192091,"lng":114.22329985053,"name_en":"Munsang College (Hong Kong Island), Tai On Street","name_zh":"港島民生書院, 太安街","bus_group_id":304},{"id":"20016059","lat":22.28323,"lng":114.22355,"name_en":"Tai On Street, outside Mun Sang College","name_zh":"太安街, 港島民生書院外","bus_group_id":304},{"id":"001316","lat":22.282354632091,"lng":114.22239868053,"name_en":"Sai Wan Ho Station, Tai On Street","name_zh":"西灣河站, 太安街","bus_group_id":305},{"id":"20016060","lat":22.28235,"lng":114.22249,"name_en":"No.12 Tai On Street","name_zh":"太安街12號","bus_group_id":305},{"id":"001317","lat":22.269405042091,"lng":114.23309456053,"name_en":"Shan Tsui Court, Tai Tam Road","name_zh":"山翠苑, 大潭道","bus_group_id":306},{"id":"0DCC18C3A018C1DA","lat":22.269285,"lng":114.233546,"name_en":"SHAN TSUI COURT","name_zh":"山翠苑","bus_group_id":306},{"id":"001318","lat":22.263569562091,"lng":114.23041293053,"name_en":"Girl Guides Cecilia Mar Venture House, Tai Tam Road","name_zh":"女童軍訓練中心, 大潭道","bus_group_id":307},{"id":"001321","lat":22.263971382091,"lng":114.23059713053,"name_en":"Girl Guides Cecilia Mar Venture House, Tai Tam Road","name_zh":"女童軍訓練中心, 大潭道","bus_group_id":307},{"id":"001319","lat":22.263060292091,"lng":114.22549684053,"name_en":"New Bridge, Tai Tam Road","name_zh":"新橋面, 大潭道","bus_group_id":308},{"id":"001320","lat":22.257696712091,"lng":114.22792689053,"name_en":"Sai Wan Treatment Works, Tai Tam Road","name_zh":"西灣濾水廠, 大潭道","bus_group_id":309},{"id":"20003351","lat":22.25764,"lng":114.22782,"name_en":"Tai Tam Gap","name_zh":"大潭峽","bus_group_id":309},{"id":"001321","lat":22.263971382091,"lng":114.23059713053,"name_en":"Girl Guides Cecilia Mar Venture House, Tai Tam Road","name_zh":"女童軍訓練中心, 大潭道","bus_group_id":310},{"id":"001322","lat":22.269012232091,"lng":114.23272045053,"name_en":"Shan Tsui Court, Tai Tam Road","name_zh":"山翠苑, 大潭道","bus_group_id":311},{"id":"20003467","lat":22.26937,"lng":114.23301,"name_en":"Tai Tam Road, opposite Shan Tsui Court","name_zh":"大潭道, 山翠苑对面","bus_group_id":311},{"id":"001323","lat":22.292679562091,"lng":114.20283216053,"name_en":"Tin Chiu Street","name_zh":"電照街","bus_group_id":312},{"id":"BB930AAAB15181A1","lat":22.292559,"lng":114.202798,"name_en":"TIN CHIU STREET","name_zh":"電照街","bus_group_id":312},{"id":"15CCC3BD5D31F759","lat":22.292941,"lng":114.202713,"name_en":"TIN CHIU STREET","name_zh":"電照街","bus_group_id":312},{"id":"001324","lat":22.288638982091,"lng":114.20240686053,"name_en":"Pak Fuk Road, Tin Hau Temple Road","name_zh":"百福道, 天后廟道","bus_group_id":313},{"id":"001331","lat":22.288587162091,"lng":114.20258643053,"name_en":"Pak Fuk Road, Tin Hau Temple Road","name_zh":"百福道, 天后廟道","bus_group_id":313},{"id":"001325","lat":22.287698762091,"lng":114.19937946053,"name_en":"Summit Court, Tin Hau Temple Road","name_zh":"雲峰大廈, 天后廟道","bus_group_id":314},{"id":"001330","lat":22.287820112091,"lng":114.19917798053,"name_en":"Summit Court, Tin Hau Temple Road","name_zh":"雲峰大廈, 天后廟道","bus_group_id":314},{"id":"001326","lat":22.288018642091,"lng":114.19723560053,"name_en":"Coral Court, Tin Hau Temple Road","name_zh":"珊瑚閣, 天后廟道","bus_group_id":315},{"id":"001329","lat":22.288090362091,"lng":114.19736879053,"name_en":"Coral Court, Tin Hau Temple Road","name_zh":"珊瑚閣, 天后廟道","bus_group_id":315},{"id":"001327","lat":22.287155742091,"lng":114.19584675053,"name_en":"Hacienda, Tin Hau Temple Road","name_zh":"衡峰閣, 天后廟道","bus_group_id":316},{"id":"001328","lat":22.287244652091,"lng":114.19580645053,"name_en":"Hacienda, Tin Hau Temple Road","name_zh":"衡峰閣, 天后廟道","bus_group_id":316},{"id":"001328","lat":22.287244652091,"lng":114.19580645053,"name_en":"Hacienda, Tin Hau Temple Road","name_zh":"衡峰閣, 天后廟道","bus_group_id":317},{"id":"001329","lat":22.288090362091,"lng":114.19736879053,"name_en":"Coral Court, Tin Hau Temple Road","name_zh":"珊瑚閣, 天后廟道","bus_group_id":318},{"id":"001330","lat":22.287820112091,"lng":114.19917798053,"name_en":"Summit Court, Tin Hau Temple Road","name_zh":"雲峰大廈, 天后廟道","bus_group_id":319},{"id":"001331","lat":22.288587162091,"lng":114.20258643053,"name_en":"Pak Fuk Road, Tin Hau Temple Road","name_zh":"百福道, 天后廟道","bus_group_id":320},{"id":"001332","lat":22.290594642091,"lng":114.20068226053,"name_en":"Shu Kuk Street, Tsat Tsz Mui Road","name_zh":"書局街, 七姊妹道","bus_group_id":321},{"id":"001333","lat":22.280980392091,"lng":114.19206074053,"name_en":"Queen's College, Tung Lo Wan Road","name_zh":"皇仁書院, 銅鑼灣道","bus_group_id":322},{"id":"16A17C98A3C1F354","lat":22.281005,"lng":114.19206,"name_en":"QUEEN'S COLLEGE","name_zh":"皇仁書院","bus_group_id":322},{"id":"001334","lat":22.279131322091,"lng":114.19176929053,"name_en":"Chinese Recreation Club, Tung Lo Wan Road","name_zh":"中華游樂會, 銅鑼灣道","bus_group_id":323},{"id":"CB57F3C6E52C89F0","lat":22.279102,"lng":114.191767,"name_en":"CHINESE RECREATION CLUB","name_zh":"中華游樂會","bus_group_id":323},{"id":"001335","lat":22.284074312091,"lng":114.18628546053,"name_en":"Causeway Bay Typhoon Shelter, Victoria Park Road","name_zh":"銅鑼灣避風塘, 維園道","bus_group_id":324},{"id":"137E4ABB3A5D28F0","lat":22.284115,"lng":114.186387,"name_en":"CAUSEWAY BAY TYPHOON SHELTER","name_zh":"銅鑼灣避風塘","bus_group_id":324},{"id":"001336","lat":22.262856432091,"lng":114.23450941053,"name_en":"Hing Tsui House Hing Wah Estate, Wan Tsui Road","name_zh":"興華邨興翠樓, 環翠道","bus_group_id":325},{"id":"001341","lat":22.262516262091,"lng":114.23426978053,"name_en":"Fung Hing House Hing Wah Estate, Wan Tsui Road","name_zh":"興華邨豐興樓, 環翠道","bus_group_id":325},{"id":"001337","lat":22.261984002091,"lng":114.23556086053,"name_en":"Cheuk Wah House Hing Wah Estate, Wan Tsui Road","name_zh":"興華邨卓華樓, 環翠道","bus_group_id":326},{"id":"671C0B06B1582C54","lat":22.262078,"lng":114.235508,"name_en":"CHEUK WAH HOUSE HING WAH ESTATE","name_zh":"興華邨卓華樓","bus_group_id":326},{"id":"001338","lat":22.262812062091,"lng":114.23696165053,"name_en":"Youth Square, Wan Tsui Road","name_zh":"青年廣場, 環翠道","bus_group_id":327},{"id":"001339","lat":22.262518442091,"lng":114.23664512053,"name_en":"Chak Tsui House Wan Tsui Estate, Wan Tsui Road","name_zh":"環翠邨澤翠樓, 環翠道","bus_group_id":327},{"id":"001339","lat":22.262518442091,"lng":114.23664512053,"name_en":"Chak Tsui House Wan Tsui Estate, Wan Tsui Road","name_zh":"環翠邨澤翠樓, 環翠道","bus_group_id":328},{"id":"20003431","lat":22.26246,"lng":114.23663,"name_en":"Wan Tsui Road, outside Chak Tsui House","name_zh":"環翠道, 澤翠樓外","bus_group_id":328},{"id":"651601AE1D235E43","lat":22.262717,"lng":114.236683,"name_en":"YOUTH SQUARE","name_zh":"青年廣場","bus_group_id":328},{"id":"C539A7A9365F64D0","lat":22.262584,"lng":114.236716,"name_en":"CHAK TSUI HOUSE WAN TSUI ESTATE","name_zh":"環翠邨澤翠樓","bus_group_id":328},{"id":"001340","lat":22.261748512091,"lng":114.23498678053,"name_en":"Cheuk Wah House Hing Wah Estate, Wan Tsui Road","name_zh":"興華邨卓華樓, 環翠道","bus_group_id":329},{"id":"51B7D1F60A5BA724","lat":22.26163,"lng":114.234893,"name_en":"CHEUK WAH HOUSE HING WAH ESTATE","name_zh":"興華邨卓華樓","bus_group_id":329},{"id":"1EB12525E375450A","lat":22.261821,"lng":114.235037,"name_en":"CHEUK WAH HOUSE HING WAH ESTATE","name_zh":"興華邨卓華樓","bus_group_id":329},{"id":"001341","lat":22.262516262091,"lng":114.23426978053,"name_en":"Fung Hing House Hing Wah Estate, Wan Tsui Road","name_zh":"興華邨豐興樓, 環翠道","bus_group_id":330},{"id":"20012980","lat":22.26242,"lng":114.23422,"name_en":"Wan Tsui Road, outside Fung Hing House","name_zh":"環翠道, 豐興樓外","bus_group_id":330},{"id":"4BD11538EEA40F55","lat":22.262597,"lng":114.23426,"name_en":"FUNG HING HOUSE HING WAH ESTATE","name_zh":"興華邨豐興樓","bus_group_id":330},{"id":"9DDDCABF063188C7","lat":22.262699,"lng":114.234295,"name_en":"FUNG HING HOUSE HING WAH ESTATE","name_zh":"興華邨豐興樓","bus_group_id":330},{"id":"001342","lat":22.286037612091,"lng":114.19055883053,"name_en":"Causeway Bay (Whitfield Road)","name_zh":"銅鑼灣 (威非路道)","bus_group_id":331},{"id":"001343","lat":22.267580942091,"lng":114.24236493053,"name_en":"Chai Wan Industrial City, Wing Tai Road","name_zh":"柴灣工業城, 永泰道","bus_group_id":332},{"id":"5EF17508ECE5D9BD","lat":22.267576,"lng":114.242379,"name_en":"CHAI WAN INDUSTRIAL CITY","name_zh":"柴灣工業城","bus_group_id":332},{"id":"1741DBD77E775E0C","lat":22.267633,"lng":114.242377,"name_en":"CHAI WAN INDUSTRIAL CITY","name_zh":"柴灣工業城","bus_group_id":332},{"id":"20011486","lat":22.26779,"lng":114.24217,"name_en":"Wing Tai Road, Chai Wan Industrial City Phase 1","name_zh":"永泰道, 柴灣工業城第1期外","bus_group_id":332},{"id":"001344","lat":22.268492732091,"lng":114.24100291053,"name_en":"Tsui Wan Estate, Wing Tai Road","name_zh":"翠灣邨, 永泰道","bus_group_id":333},{"id":"6546B62F4E723EB6","lat":22.26862,"lng":114.240685,"name_en":"TSUI SHOU HOUSE TSUI WAN ESTATE","name_zh":"翠灣邨翠壽樓","bus_group_id":333},{"id":"001346","lat":22.281825632091,"lng":114.19399404053,"name_en":"Yee King Road","name_zh":"怡景道","bus_group_id":334},{"id":"323B8C4CA047E7D4","lat":22.28203,"lng":114.194059,"name_en":"YEE KING ROAD","name_zh":"怡景道","bus_group_id":334},{"id":"001347","lat":22.283838312091,"lng":114.19504527053,"name_en":"North Point Government Primary School (Cloud View Road), Yee King Road","name_zh":"北角官立小學雲景道, 怡景道","bus_group_id":335},